$GPGSV,3,1,09,08,05,310,,10,47,307,,15,28,064,,18,41,184,,1*6B
$GPGSV,3,2,09,22,02,033,,23,79,022,,24,56,081,,27,09,277,,1*63
$GPGSV,3,3,09,32,30,253,,1*5B
$GLGSV,2,1,07,68,60,002,31,79,01,158,,69,34,286,,84,40,305,,1*7D
$GLGSV,2,2,07,83,37,215,,85,00,000,,67,26,063,,1*4B
$GPGSA,A,1,,,,,,,,,,,,,,,,*32
$GPVTG,,T,,M,,N,,K,N*2C
$GPDTM,,,,,,,,*4A
$GPRMC,,V,,,,,,,,,,N,V*29
$GPGNS,,,,,,N,,,,,,,V*79
$GPGGA,,,,,,0,,,,,,,,*66
$GPGSV,3,1,09,10,47,307,34,15,28,064,31,18,41,184,26,23,79,022,35,1*6C
$GPGSV,3,2,09,24,56,081,34,08,05,310,,22,02,033,,27,09,277,,1*64
$GPGSV,3,3,09,32,30,253,,1*5B
$GLGSV,2,1,07,68,60,002,35,79,01,158,,69,34,286,,84,40,305,,1*79
$GLGSV,2,2,07,83,37,215,,85,00,000,,67,26,063,,1*4B
$GPGSA,A,1,,,,,,,,,,,,,,,,*32
$GPVTG,,T,,M,,N,,K,N*2C
$GPDTM,,,,,,,,*4A
$GPRMC,,V,,,,,,,,,,N,V*29
$GPGNS,,,,,,N,,,,,,,V*79
$GPGGA,,,,,,0,,,,,,,,*66
$GPGSV,3,1,09,10,47,307,34,15,28,064,31,18,41,184,26,23,79,022,35,1*6C
$GPGSV,3,2,09,24,56,081,34,08,05,310,,22,02,033,,27,09,277,,1*64
$GPGSV,3,3,09,32,30,253,,1*5B
$GLGSV,2,1,07,84,40,305,20,68,60,002,36,79,01,158,,69,34,286,,1*78
$GLGSV,2,2,07,83,37,215,,85,00,000,,67,26,063,,1*4B
$GNGSA,A,3,10,15,18,23,24,,,,,,,,1.6,1.3,0.9,1*36
$GNGSA,A,3,68,84,,,,,,,,,,,1.6,1.3,0.9,2*3C
$GNVTG,,T,,M,0.0,N,0.0,K,A*3D
$GNDTM,P90,,0000.000026,S,00000.000002,E,0.978,W84*5E
$GNRMC,062524.00,A,4302.117117,N,07620.600717,W,0.0,,050324,9.5,W,A,V*75
$GNGNS,062524.00,4302.117117,N,07620.600717,W,AANNNN,07,1.3,198.8,-38.9,,,V*14
$GNGGA,062524.00,4302.117117,N,07620.600717,W,1,07,1.3,198.8,M,-38.9,M,,*44
$GPGSV,3,1,09,10,47,307,33,15,28,064,30,18,41,184,26,23,79,022,36,1*69
$GPGSV,3,2,09,24,56,081,34,32,30,253,23,08,05,310,,22,02,033,,1*6D
$GPGSV,3,3,09,27,09,277,,1*53
$GLGSV,2,1,07,84,40,305,20,68,60,002,36,79,01,158,,69,34,286,,1*78
$GLGSV,2,2,07,83,37,215,,85,00,000,,67,26,063,,1*4B
$GNGSA,A,3,10,15,18,23,24,32,,,,,,,1.5,1.2,0.9,1*35
$GNGSA,A,3,68,84,,,,,,,,,,,1.5,1.2,0.9,2*3E
$GNVTG,,T,,M,0.0,N,0.0,K,A*3D
$GNDTM,P90,,0000.000026,S,00000.000002,E,0.978,W84*5E
$GNRMC,062525.00,A,4302.115631,N,07620.600806,W,0.0,,050324,9.5,W,A,V*7A
$GNGNS,062525.00,4302.115631,N,07620.600806,W,AANNNN,08,1.2,199.1,-38.9,,,V*1D
$GNGGA,062525.00,4302.115631,N,07620.600806,W,1,08,1.2,199.1,M,-38.9,M,,*4D
$GPGSV,3,1,09,10,47,307,34,15,28,064,31,18,41,184,26,23,79,022,36,1*6F
$GPGSV,3,2,09,24,56,081,34,32,30,253,23,08,05,310,,22,02,033,,1*6D
$GPGSV,3,3,09,27,09,277,,1*53
$GLGSV,2,1,07,84,40,305,20,68,60,002,36,79,01,158,,69,34,286,,1*78
$GLGSV,2,2,07,83,37,215,,85,00,000,,67,26,063,,1*4B
$GNGSA,A,3,10,15,18,23,24,32,,,,,,,1.5,1.2,0.9,1*35
$GNGSA,A,3,68,84,,,,,,,,,,,1.5,1.2,0.9,2*3E
$GNVTG,,T,,M,0.0,N,0.0,K,A*3D
$GNDTM,P90,,0000.000026,S,00000.000002,E,0.978,W84*5E
$GNRMC,062526.00,A,4302.113932,N,07620.601554,W,0.0,,050324,9.5,W,A,V*78
$GNGNS,062526.00,4302.113932,N,07620.601554,W,AANNNN,08,1.2,198.4,-38.9,,,V*1B
$GNGGA,062526.00,4302.113932,N,07620.601554,W,1,08,1.2,198.4,M,-38.9,M,,*4B
$GPGSV,3,1,09,10,47,307,34,15,28,064,30,18,41,184,26,23,79,022,37,1*6F
$GPGSV,3,2,09,24,56,081,34,32,30,253,23,08,05,310,,22,02,033,,1*6D
$GPGSV,3,3,09,27,09,277,,1*53
$GLGSV,2,1,07,69,34,286,18,84,40,305,20,68,60,002,37,79,01,158,,1*70
$GLGSV,2,2,07,83,37,215,,85,00,000,,67,26,063,,1*4B
$GNGSA,A,3,10,15,18,23,24,32,,,,,,,1.5,1.2,0.9,1*35
$GNGSA,A,3,68,84,,,,,,,,,,,1.5,1.2,0.9,2*3E
$GNVTG,,T,,M,0.0,N,0.0,K,A*3D
$GNDTM,P90,,0000.000026,S,00000.000002,E,0.978,W84*5E
$GNRMC,062527.00,A,4302.113609,N,07620.601601,W,0.0,,050324,9.5,W,A,V*7D
$GNGNS,062527.00,4302.113609,N,07620.601601,W,AANNNN,08,1.2,204.2,-38.9,,,V*1E
$GNGGA,062527.00,4302.113609,N,07620.601601,W,1,08,1.2,204.2,M,-38.9,M,,*4E
$GPGSV,3,1,09,10,47,307,32,15,28,064,31,18,41,184,23,23,79,022,33,1*69
$GPGSV,3,2,09,24,56,081,34,32,30,253,23,08,05,310,,22,02,033,,1*6D
$GPGSV,3,3,09,27,09,277,,1*53
$GLGSV,2,1,07,69,34,286,18,84,40,305,20,67,26,063,18,68,60,002,34,1*79
$GLGSV,2,2,07,79,01,158,,83,37,215,,85,00,000,,1*48
$GNGSA,A,3,10,15,18,23,24,32,,,,,,,1.5,1.2,0.9,1*35
$GNGSA,A,3,67,68,84,,,,,,,,,,1.5,1.2,0.9,2*3F
$GNVTG,,T,,M,0.0,N,0.0,K,A*3D
$GNDTM,P90,,0000.000026,S,00000.000002,E,0.978,W84*5E
$GNRMC,062528.00,A,4302.113293,N,07620.601810,W,0.0,,050324,9.5,W,A,V*7B
$GNGNS,062528.00,4302.113293,N,07620.601810,W,AANNNN,09,1.2,207.0,-38.9,,,V*18
$GNGGA,062528.00,4302.113293,N,07620.601810,W,1,09,1.2,207.0,M,-38.9,M,,*48
$GPGSV,3,1,09,10,47,307,34,15,28,064,28,18,41,184,25,23,79,022,36,1*64
$GPGSV,3,2,09,24,56,081,33,32,30,253,22,08,05,310,,22,02,033,,1*6B
$GPGSV,3,3,09,27,09,277,,1*53
$GLGSV,2,1,07,69,34,286,18,84,40,305,21,67,26,063,18,68,60,002,36,1*7A
$GLGSV,2,2,07,79,01,158,,83,37,215,,85,00,000,,1*48
$GNGSA,A,3,10,15,18,23,24,32,,,,,,,1.5,1.2,0.9,1*35
$GNGSA,A,3,67,68,84,,,,,,,,,,1.5,1.2,0.9,2*3F
$GNVTG,,T,,M,0.0,N,0.0,K,A*3D
$GNDTM,P90,,0000.000026,S,00000.000002,E,0.978,W84*5E
$GNRMC,062529.00,A,4302.113130,N,07620.601901,W,0.0,,050324,9.5,W,A,V*71
$GNGNS,062529.00,4302.113130,N,07620.601901,W,AANNNN,09,1.2,208.8,-38.9,,,V*15
$GNGGA,062529.00,4302.113130,N,07620.601901,W,1,09,1.2,208.8,M,-38.9,M,,*45
$GPGSV,3,1,09,10,47,307,33,15,28,064,26,18,41,184,25,23,79,022,36,1*6D
$GPGSV,3,2,09,24,56,081,34,32,30,253,22,08,05,310,,22,02,033,,1*6C
$GPGSV,3,3,09,27,09,277,,1*53
$GLGSV,2,1,07,69,34,286,19,84,40,305,21,67,26,063,19,68,60,002,37,1*7B
$GLGSV,2,2,07,79,01,158,,83,37,215,,85,00,000,,1*48
$GNGSA,A,3,10,15,18,23,24,32,,,,,,,1.5,1.2,0.9,1*35
$GNGSA,A,3,67,68,84,,,,,,,,,,1.5,1.2,0.9,2*3F
$GNVTG,,T,,M,0.0,N,0.0,K,A*3D
$GNDTM,P90,,0000.000026,S,00000.000002,E,0.978,W84*5E
$GNRMC,062530.00,A,4302.111482,N,07620.602439,W,0.0,,050324,9.5,W,A,V*72
$GNGNS,062530.00,4302.111482,N,07620.602439,W,AANNNN,09,1.2,207.6,-38.9,,,V*17
$GNGGA,062530.00,4302.111482,N,07620.602439,W,1,09,1.2,207.6,M,-38.9,M,,*47
$GPGSV,3,1,09,10,47,307,33,15,28,064,24,18,41,184,24,23,79,022,36,1*6E
$GPGSV,3,2,09,24,56,081,31,32,30,253,22,08,05,310,,22,02,033,,1*69
$GPGSV,3,3,09,27,09,277,,1*53
$GLGSV,2,1,07,69,34,286,18,84,40,305,21,67,26,063,20,68,60,002,36,1*71
$GLGSV,2,2,07,79,01,158,,83,37,215,,85,00,000,,1*48
$GNGSA,A,3,10,15,18,23,24,32,,,,,,,1.5,1.2,0.9,1*35
$GNGSA,A,3,67,68,84,,,,,,,,,,1.5,1.2,0.9,2*3F
$GNVTG,,T,,M,0.0,N,0.0,K,A*3D
$GNDTM,P90,,0000.000026,S,00000.000002,E,0.978,W84*5E
$GNRMC,062531.00,A,4302.110429,N,07620.602816,W,0.0,,050324,9.5,W,A,V*72
$GNGNS,062531.00,4302.110429,N,07620.602816,W,AANNNN,09,1.2,207.2,-38.9,,,V*13
$GNGGA,062531.00,4302.110429,N,07620.602816,W,1,09,1.2,207.2,M,-38.9,M,,*43
$GPGSV,3,1,09,10,47,307,35,15,28,064,28,18,41,184,24,23,79,022,38,1*6A
$GPGSV,3,2,09,24,56,081,36,32,30,253,21,08,05,310,,22,02,033,,1*6D
$GPGSV,3,3,09,27,09,277,,1*53
$GLGSV,2,1,07,69,34,286,18,84,40,305,25,67,26,063,28,68,60,002,38,1*73
$GLGSV,2,2,07,79,01,158,,83,37,215,,85,00,000,,1*48
$GNGSA,A,3,10,15,18,23,24,32,,,,,,,1.5,1.2,0.9,1*35
$GNGSA,A,3,67,68,84,,,,,,,,,,1.5,1.2,0.9,2*3F
$GNVTG,,T,,M,0.0,N,0.0,K,A*3D
$GNDTM,P90,,0000.000026,S,00000.000002,E,0.978,W84*5E
$GNRMC,062532.00,A,4302.109652,N,07620.603438,W,0.0,,050324,9.5,W,A,V*76
$GNGNS,062532.00,4302.109652,N,07620.603438,W,AANNNN,09,1.2,207.9,-38.9,,,V*1C
$GNGGA,062532.00,4302.109652,N,07620.603438,W,1,09,1.2,207.9,M,-38.9,M,,*4C
$GPGSV,3,1,09,10,47,307,37,15,28,064,29,18,41,184,26,23,79,022,40,1*64
$GPGSV,3,2,09,24,56,081,37,32,30,253,21,08,05,310,,22,02,033,,1*6C
$GPGSV,3,3,09,27,09,277,,1*53
$GLGSV,2,1,07,69,34,286,18,84,40,305,25,67,26,063,30,68,60,002,39,1*7B
$GLGSV,2,2,07,79,01,158,,83,37,215,,85,00,000,,1*48
$GNGSA,A,3,10,15,18,23,24,32,,,,,,,1.5,1.2,0.9,1*35
$GNGSA,A,3,67,68,84,,,,,,,,,,1.5,1.2,0.9,2*3F
$GNVTG,,T,,M,0.0,N,0.0,K,A*3D
$GNDTM,P90,,0000.000026,S,00000.000002,E,0.978,W84*5E
$GNRMC,062533.00,A,4302.109075,N,07620.603646,W,0.0,,050324,9.5,W,A,V*7F
$GNGNS,062533.00,4302.109075,N,07620.603646,W,AANNNN,09,1.2,208.1,-38.9,,,V*12
$GNGGA,062533.00,4302.109075,N,07620.603646,W,1,09,1.2,208.1,M,-38.9,M,,*42
$GPGSV,3,1,09,10,47,307,37,15,28,064,28,18,41,184,27,23,79,022,40,1*64
$GPGSV,3,2,09,24,56,081,37,32,30,253,22,08,05,310,,22,02,033,,1*6F
$GPGSV,3,3,09,27,09,277,,1*53
$GLGSV,2,1,07,69,34,286,18,84,40,305,24,67,26,063,29,68,60,002,39,1*72
$GLGSV,2,2,07,79,01,158,,83,37,215,,85,00,000,,1*48
$GNGSA,A,3,10,15,18,23,24,32,,,,,,,1.5,1.2,0.9,1*35
$GNGSA,A,3,67,68,84,,,,,,,,,,1.5,1.2,0.9,2*3F
$GNVTG,,T,,M,0.0,N,0.0,K,A*3D
$GNDTM,P90,,0000.000026,S,00000.000002,E,0.978,W84*5E
$GNRMC,062534.00,A,4302.108670,N,07620.603650,W,0.0,,050324,9.5,W,A,V*7D
$GNGNS,062534.00,4302.108670,N,07620.603650,W,AANNNN,09,1.2,210.1,-38.9,,,V*19
$GNGGA,062534.00,4302.108670,N,07620.603650,W,1,09,1.2,210.1,M,-38.9,M,,*49
$GPGSV,3,1,09,10,47,307,38,15,28,064,30,18,41,184,28,23,79,022,40,1*6D
$GPGSV,3,2,09,24,56,081,37,32,30,253,25,08,05,310,,22,02,033,,1*68
$GPGSV,3,3,09,27,09,277,,1*53
$GLGSV,2,1,07,69,34,286,18,84,40,305,25,67,26,063,29,68,60,002,39,1*73
$GLGSV,2,2,07,79,01,158,,83,37,215,,85,00,000,,1*48
$GNGSA,A,3,10,15,18,23,24,32,,,,,,,1.5,1.2,0.9,1*35
$GNGSA,A,3,67,68,84,,,,,,,,,,1.5,1.2,0.9,2*3F
$GNVTG,,T,,M,0.0,N,0.0,K,A*3D
$GNDTM,P90,,0000.000026,S,00000.000002,E,0.978,W84*5E
$GNRMC,062535.00,A,4302.108579,N,07620.603687,W,0.0,,050324,9.5,W,A,V*7C
$GNGNS,062535.00,4302.108579,N,07620.603687,W,AANNNN,09,1.2,210.2,-38.9,,,V*1B
$GNGGA,062535.00,4302.108579,N,07620.603687,W,1,09,1.2,210.2,M,-38.9,M,,*4B
$GPGSV,3,1,09,10,47,307,36,15,28,064,30,18,41,184,26,23,79,022,38,1*62
$GPGSV,3,2,09,24,56,081,36,32,30,253,23,08,05,310,,22,02,033,,1*6F
$GPGSV,3,3,09,27,09,277,,1*53
$GLGSV,2,1,07,69,34,286,18,84,40,305,23,67,26,063,27,68,60,002,38,1*7A
$GLGSV,2,2,07,79,01,158,,83,37,215,,85,00,000,,1*48
$GNGSA,A,3,10,15,18,23,24,32,,,,,,,1.5,1.2,0.9,1*35
$GNGSA,A,3,67,68,84,,,,,,,,,,1.5,1.2,0.9,2*3F
$GNVTG,,T,,M,0.0,N,0.0,K,A*3D
$GNDTM,P90,,0000.000026,S,00000.000002,E,0.978,W84*5E
$GNRMC,062536.00,A,4302.108500,N,07620.603614,W,0.0,,050324,9.5,W,A,V*7B
$GNGNS,062536.00,4302.108500,N,07620.603614,W,AANNNN,09,1.2,211.0,-38.9,,,V*1F
$GNGGA,062536.00,4302.108500,N,07620.603614,W,1,09,1.2,211.0,M,-38.9,M,,*4F
$GPGSV,3,1,09,10,47,307,38,15,28,064,31,18,41,184,28,23,79,022,40,1*6C
$GPGSV,3,2,09,24,56,081,36,32,30,253,23,08,05,310,,22,02,033,,1*6F
$GPGSV,3,3,09,27,09,277,,1*53
$GLGSV,2,1,07,69,34,286,18,84,40,305,25,67,26,063,29,68,60,002,39,1*73
$GLGSV,2,2,07,79,01,158,,83,37,215,,85,00,000,,1*48
$GNGSA,A,3,10,15,18,23,24,32,,,,,,,1.5,1.2,0.9,1*35
$GNGSA,A,3,67,68,84,,,,,,,,,,1.5,1.2,0.9,2*3F
$GNVTG,,T,,M,0.0,N,0.0,K,A*3D
$GNDTM,P90,,0000.000026,S,00000.000002,E,0.978,W84*5E
$GNRMC,062537.00,A,4302.108407,N,07620.603538,W,0.0,,050324,9.5,W,A,V*71
$GNGNS,062537.00,4302.108407,N,07620.603538,W,AANNNN,09,1.2,211.4,-38.9,,,V*11
$GNGGA,062537.00,4302.108407,N,07620.603538,W,1,09,1.2,211.4,M,-38.9,M,,*41
$GPGSV,3,1,09,10,47,307,39,15,28,064,31,18,41,184,28,23,79,022,40,1*6D
$GPGSV,3,2,09,24,56,081,36,32,30,253,23,08,05,310,,22,02,033,,1*6F
$GPGSV,3,3,09,27,09,277,,1*53
$GLGSV,2,1,07,69,34,286,21,84,40,305,25,67,26,063,31,68,60,002,40,1*7E
$GLGSV,2,2,07,79,01,158,,83,37,215,,85,00,000,,1*48
$GNGSA,A,3,10,15,18,23,24,32,,,,,,,1.5,1.2,0.9,1*35
$GNGSA,A,3,67,68,84,,,,,,,,,,1.5,1.2,0.9,2*3F
$GNVTG,,T,,M,0.0,N,0.0,K,A*3D
$GNDTM,P90,,0000.000026,S,00000.000002,E,0.978,W84*5E
$GNRMC,062538.00,A,4302.108267,N,07620.603524,W,0.0,,050324,9.5,W,A,V*73
$GNGNS,062538.00,4302.108267,N,07620.603524,W,AANNNN,09,1.2,212.7,-38.9,,,V*13
$GNGGA,062538.00,4302.108267,N,07620.603524,W,1,09,1.2,212.7,M,-38.9,M,,*43
$GPGSV,3,1,09,10,47,307,39,15,28,064,31,18,41,184,28,23,79,022,40,1*6D
$GPGSV,3,2,09,24,56,081,37,32,30,253,22,08,05,310,,22,02,033,,1*6F
$GPGSV,3,3,09,27,09,277,,1*53
$GLGSV,2,1,07,69,34,286,22,84,40,305,27,67,26,063,30,68,60,002,40,1*7E
$GLGSV,2,2,07,79,01,158,,83,37,215,,85,00,000,,1*48
$GNGSA,A,3,10,15,18,23,24,32,,,,,,,1.5,1.2,0.9,1*35
$GNGSA,A,3,67,68,84,,,,,,,,,,1.5,1.2,0.9,2*3F
$GNVTG,,T,,M,0.0,N,0.0,K,A*3D
$GNDTM,P90,,0000.000026,S,00000.000002,E,0.978,W84*5E
$GNRMC,062539.00,A,4302.108085,N,07620.603516,W,0.0,,050324,9.5,W,A,V*7D
$GNGNS,062539.00,4302.108085,N,07620.603516,W,AANNNN,09,1.2,213.6,-38.9,,,V*1D
$GNGGA,062539.00,4302.108085,N,07620.603516,W,1,09,1.2,213.6,M,-38.9,M,,*4D
$GPGSV,3,1,09,10,47,307,38,15,28,064,32,18,41,184,27,23,79,022,40,1*60
$GPGSV,3,2,09,24,56,081,37,32,30,253,23,08,05,310,,22,02,033,,1*6E
$GPGSV,3,3,09,27,09,277,,1*53
$GLGSV,2,1,07,69,34,286,23,84,40,305,24,67,26,063,30,68,60,002,40,1*7C
$GLGSV,2,2,07,79,01,158,,83,37,215,,85,00,000,,1*48
$GNGSA,A,3,10,15,18,23,24,32,,,,,,,1.5,1.2,0.9,1*35
$GNGSA,A,3,67,68,84,,,,,,,,,,1.5,1.2,0.9,2*3F
$GNVTG,,T,,M,0.0,N,0.0,K,A*3D
$GNDTM,P90,,0000.000026,S,00000.000002,E,0.978,W84*5E
$GNRMC,062540.00,A,4302.107893,N,07620.603498,W,0.0,,050324,9.5,W,A,V*74
$GNGNS,062540.00,4302.107893,N,07620.603498,W,AANNNN,09,1.2,214.4,-38.9,,,V*11
$GNGGA,062540.00,4302.107893,N,07620.603498,W,1,09,1.2,214.4,M,-38.9,M,,*41
$GPGSV,3,1,09,10,47,307,38,15,28,064,31,18,41,184,28,23,79,022,40,1*6C
$GPGSV,3,2,09,24,56,081,38,32,30,253,24,08,05,310,,22,02,033,,1*66
$GPGSV,3,3,09,27,09,277,,1*53
$GLGSV,2,1,07,69,34,286,21,84,40,305,26,67,26,063,30,68,60,002,40,1*7C
$GLGSV,2,2,07,79,01,158,,83,37,215,,85,00,000,,1*48
$GNGSA,A,3,10,15,18,23,24,32,,,,,,,1.5,1.2,0.9,1*35
$GNGSA,A,3,67,68,84,,,,,,,,,,1.5,1.2,0.9,2*3F
$GNVTG,,T,,M,0.0,N,0.0,K,A*3D
$GNDTM,P90,,0000.000026,S,00000.000002,E,0.978,W84*5E
$GNRMC,062541.00,A,4302.107775,N,07620.603496,W,0.0,,050324,9.5,W,A,V*7C
$GNGNS,062541.00,4302.107775,N,07620.603496,W,AANNNN,09,1.2,214.6,-38.9,,,V*1B
$GNGGA,062541.00,4302.107775,N,07620.603496,W,1,09,1.2,214.6,M,-38.9,M,,*4B
$GPGSV,3,1,09,10,47,307,38,15,28,064,31,18,41,184,27,23,79,022,40,1*63
$GPGSV,3,2,09,24,56,081,38,32,30,253,22,08,05,310,,22,02,033,,1*60
$GPGSV,3,3,09,27,09,277,,1*53
$GLGSV,2,1,07,69,34,286,21,84,40,305,25,67,26,063,30,68,60,002,40,1*7F
$GLGSV,2,2,07,79,01,158,,83,37,215,,85,00,000,,1*48
$GNGSA,A,3,10,15,18,23,24,,,,,,,,1.5,1.2,0.9,1*34
$GNGSA,A,3,67,68,84,,,,,,,,,,1.5,1.2,0.9,2*3F
$GNVTG,,T,,M,0.0,N,0.0,K,A*3D
$GNDTM,P90,,0000.000026,S,00000.000002,E,0.978,W84*5E
$GNRMC,062542.00,A,4302.107718,N,07620.603489,W,0.0,,050324,9.5,W,A,V*7A
$GNGNS,062542.00,4302.107718,N,07620.603489,W,AANNNN,08,1.2,214.7,-38.9,,,V*1D
$GNGGA,062542.00,4302.107718,N,07620.603489,W,1,08,1.2,214.7,M,-38.9,M,,*4D
$GPGSV,3,1,09,10,47,307,38,15,28,064,31,18,41,184,28,23,79,022,40,1*6C
$GPGSV,3,2,09,24,56,081,38,32,30,253,24,08,05,310,,22,02,033,,1*66
$GPGSV,3,3,09,27,09,277,,1*53
$GLGSV,2,1,07,69,34,286,21,84,40,305,25,67,26,063,30,68,60,002,40,1*7F
$GLGSV,2,2,07,79,01,158,,83,37,215,,85,00,000,,1*48
$GNGSA,A,3,10,15,18,23,24,32,,,,,,,1.5,1.2,0.9,1*35
$GNGSA,A,3,67,68,84,,,,,,,,,,1.5,1.2,0.9,2*3F
$GNVTG,,T,,M,0.0,N,0.0,K,A*3D
$GNDTM,P90,,0000.000026,S,00000.000002,E,0.978,W84*5E
$GNRMC,062543.00,A,4302.107680,N,07620.603488,W,0.0,,050324,9.5,W,A,V*7A
$GNGNS,062543.00,4302.107680,N,07620.603488,W,AANNNN,09,1.2,214.7,-38.9,,,V*1C
$GNGGA,062543.00,4302.107680,N,07620.603488,W,1,09,1.2,214.7,M,-38.9,M,,*4C
$GPGSV,3,1,09,10,47,307,38,15,28,064,30,18,41,184,28,23,79,022,40,1*6D
$GPGSV,3,2,09,24,56,081,38,32,30,253,24,08,05,310,,22,02,033,,1*66
$GPGSV,3,3,09,27,09,277,,1*53
$GLGSV,2,1,07,69,34,286,19,84,40,305,25,67,26,063,30,68,60,002,40,1*74
$GLGSV,2,2,07,79,01,158,,83,37,215,,85,00,000,,1*48
$GNGSA,A,3,10,15,18,23,24,32,,,,,,,1.5,1.2,0.9,1*35
$GNGSA,A,3,67,68,84,,,,,,,,,,1.5,1.2,0.9,2*3F
$GNVTG,,T,,M,0.0,N,0.0,K,A*3D
$GNDTM,P90,,0000.000026,S,00000.000002,E,0.978,W84*5E
$GNRMC,062544.00,A,4302.107663,N,07620.603487,W,0.0,,050324,9.5,W,A,V*7F
$GNGNS,062544.00,4302.107663,N,07620.603487,W,AANNNN,09,1.2,214.7,-38.9,,,V*19
$GNGGA,062544.00,4302.107663,N,07620.603487,W,1,09,1.2,214.7,M,-38.9,M,,*49
$GPGSV,3,1,09,10,47,307,33,15,28,064,31,18,41,184,25,23,79,022,36,1*6B
$GPGSV,3,2,09,24,56,081,38,32,30,253,24,08,05,310,,22,02,033,,1*66
$GPGSV,3,3,09,27,09,277,,1*53
$GLGSV,2,1,07,69,34,286,19,84,40,305,20,67,26,063,28,68,60,002,34,1*7B
$GLGSV,2,2,07,79,01,158,,83,37,215,,85,00,000,,1*48
$GNGSA,A,3,10,15,18,23,24,32,,,,,,,1.5,1.2,0.9,1*35
$GNGSA,A,3,67,68,84,,,,,,,,,,1.5,1.2,0.9,2*3F
$GNVTG,,T,,M,0.0,N,0.0,K,A*3D
$GNDTM,P90,,0000.000026,S,00000.000002,E,0.978,W84*5E
$GNRMC,062545.00,A,4302.107649,N,07620.603490,W,0.0,,050324,9.5,W,A,V*70
$GNGNS,062545.00,4302.107649,N,07620.603490,W,AANNNN,09,1.2,214.7,-38.9,,,V*16
$GNGGA,062545.00,4302.107649,N,07620.603490,W,1,09,1.2,214.7,M,-38.9,M,,*46
$GPGSV,3,1,09,10,47,307,33,15,28,064,33,18,41,184,24,23,79,022,36,1*68
$GPGSV,3,2,09,24,56,081,37,32,30,253,23,08,05,310,,22,02,033,,1*6E
$GPGSV,3,3,09,27,09,277,,1*53
$GLGSV,2,1,07,69,34,286,25,84,40,305,20,67,26,063,28,68,60,002,30,1*70
$GLGSV,2,2,07,79,01,158,,83,37,215,,85,00,000,,1*48
$GNGSA,A,3,10,15,18,23,24,32,,,,,,,1.5,1.2,0.9,1*35
$GNGSA,A,3,67,68,84,,,,,,,,,,1.5,1.2,0.9,2*3F
$GNVTG,,T,,M,0.0,N,0.0,K,A*3D
$GNDTM,P90,,0000.000026,S,00000.000002,E,0.978,W84*5E
$GNRMC,062546.00,A,4302.107641,N,07620.603492,W,0.0,,050324,9.5,W,A,V*79
$GNGNS,062546.00,4302.107641,N,07620.603492,W,AANNNN,09,1.2,214.7,-38.9,,,V*1F
$GNGGA,062546.00,4302.107641,N,07620.603492,W,1,09,1.2,214.7,M,-38.9,M,,*4F
$GPGSV,3,1,09,10,47,307,33,15,28,064,33,18,41,184,26,23,79,022,37,1*6B
$GPGSV,3,2,09,24,56,081,35,32,30,253,23,08,05,310,,22,02,033,,1*6C
$GPGSV,3,3,09,27,09,277,,1*53
$GLGSV,2,1,07,69,34,286,25,84,40,305,20,67,26,063,26,68,60,002,35,1*7B
$GLGSV,2,2,07,79,01,158,,83,37,215,,85,00,000,,1*48
$GNGSA,A,3,10,15,18,23,24,32,,,,,,,1.5,1.2,0.9,1*35
$GNGSA,A,3,67,68,84,,,,,,,,,,1.5,1.2,0.9,2*3F
$GNVTG,,T,,M,0.0,N,0.0,K,A*3D
$GNDTM,P90,,0000.000026,S,00000.000002,E,0.978,W84*5E
$GNRMC,062547.00,A,4302.107634,N,07620.603494,W,0.0,,050324,9.5,W,A,V*7C
$GNGNS,062547.00,4302.107634,N,07620.603494,W,AANNNN,09,1.2,214.7,-38.9,,,V*1A
$GNGGA,062547.00,4302.107634,N,07620.603494,W,1,09,1.2,214.7,M,-38.9,M,,*4A
$GPGSV,3,1,09,10,47,307,33,15,28,064,32,18,41,184,26,23,79,022,37,1*6A
$GPGSV,3,2,09,24,56,081,36,32,30,253,23,08,05,310,,22,02,033,,1*6F
$GPGSV,3,3,09,27,09,277,,1*53
$GLGSV,2,1,07,69,34,286,25,84,40,305,20,67,26,063,27,68,60,002,34,1*7B
$GLGSV,2,2,07,79,01,158,,83,37,215,,85,00,000,,1*48
$GNGSA,A,3,10,15,18,23,24,32,,,,,,,1.5,1.2,0.9,1*35
$GNGSA,A,3,67,68,84,,,,,,,,,,1.5,1.2,0.9,2*3F
$GNVTG,,T,,M,0.0,N,0.0,K,A*3D
$GNDTM,P90,,0000.000026,S,00000.000002,E,0.978,W84*5E
$GNRMC,062548.00,A,4302.107627,N,07620.603497,W,0.0,,050324,9.5,W,A,V*72
$GNGNS,062548.00,4302.107627,N,07620.603497,W,AANNNN,09,1.2,214.7,-38.9,,,V*14
$GNGGA,062548.00,4302.107627,N,07620.603497,W,1,09,1.2,214.7,M,-38.9,M,,*44
$GPGSV,3,1,09,10,47,307,33,15,28,064,32,18,41,184,26,23,79,022,37,1*6A
$GPGSV,3,2,09,24,56,081,37,32,30,253,24,08,05,310,,22,02,033,,1*69
$GPGSV,3,3,09,27,09,277,,1*53
$GLGSV,2,1,07,69,34,286,19,84,40,305,20,67,26,063,26,68,60,002,36,1*77
$GLGSV,2,2,07,79,01,158,,83,37,215,,85,00,000,,1*48
$GNGSA,A,3,10,15,18,23,24,32,,,,,,,1.5,1.2,0.9,1*35
$GNGSA,A,3,67,68,84,,,,,,,,,,1.5,1.2,0.9,2*3F
$GNVTG,,T,,M,0.0,N,0.0,K,A*3D
$GNDTM,P90,,0000.000026,S,00000.000002,E,0.978,W84*5E
$GNRMC,062549.00,A,4302.107621,N,07620.603500,W,0.0,,050324,9.5,W,A,V*7A
$GNGNS,062549.00,4302.107621,N,07620.603500,W,AANNNN,09,1.2,214.8,-38.9,,,V*13
$GNGGA,062549.00,4302.107621,N,07620.603500,W,1,09,1.2,214.8,M,-38.9,M,,*43
$GPGSV,3,1,09,10,47,307,33,15,28,064,33,18,41,184,26,23,79,022,38,1*64
$GPGSV,3,2,09,24,56,081,36,32,30,253,22,08,05,310,,22,02,033,,1*6E
$GPGSV,3,3,09,27,09,277,,1*53
$GLGSV,2,1,07,69,34,286,19,84,40,305,20,67,26,063,26,68,60,002,36,1*77
$GLGSV,2,2,07,79,01,158,,83,37,215,,85,00,000,,1*48
$GNGSA,A,3,10,15,18,23,24,32,,,,,,,1.5,1.2,0.9,1*35
$GNGSA,A,3,67,68,84,,,,,,,,,,1.5,1.2,0.9,2*3F
$GNVTG,,T,,M,0.0,N,0.0,K,A*3D
$GNDTM,P90,,0000.000026,S,00000.000002,E,0.978,W84*5E
$GNRMC,062550.00,A,4302.107609,N,07620.603504,W,0.0,,050324,9.5,W,A,V*7C
$GNGNS,062550.00,4302.107609,N,07620.603504,W,AANNNN,09,1.2,214.7,-38.9,,,V*1A
$GNGGA,062550.00,4302.107609,N,07620.603504,W,1,09,1.2,214.7,M,-38.9,M,,*4A
$GPGSV,3,1,09,10,47,307,33,15,28,064,33,18,41,184,26,23,79,022,37,1*6B
$GPGSV,3,2,09,24,56,081,37,32,30,253,23,08,05,310,,22,02,033,,1*6E
$GPGSV,3,3,09,27,09,277,,1*53
$GLGSV,2,1,07,69,34,286,19,84,40,305,20,67,26,063,27,68,60,002,33,1*73
$GLGSV,2,2,07,79,01,158,,83,37,215,,85,00,000,,1*48
$GNGSA,A,3,10,15,18,23,24,32,,,,,,,1.5,1.2,0.9,1*35
$GNGSA,A,3,67,68,84,,,,,,,,,,1.5,1.2,0.9,2*3F
$GNVTG,,T,,M,0.0,N,0.0,K,A*3D
$GNDTM,P90,,0000.000026,S,00000.000002,E,0.978,W84*5E
$GNRMC,062551.00,A,4302.107600,N,07620.603508,W,0.0,,050324,9.5,W,A,V*78
$GNGNS,062551.00,4302.107600,N,07620.603508,W,AANNNN,09,1.2,214.7,-38.9,,,V*1E
$GNGGA,062551.00,4302.107600,N,07620.603508,W,1,09,1.2,214.7,M,-38.9,M,,*4E
$GPGSV,3,1,09,10,47,307,34,15,28,064,33,18,41,184,28,23,79,022,39,1*6C
$GPGSV,3,2,09,24,56,081,36,32,30,253,23,08,05,310,,22,02,033,,1*6F
$GPGSV,3,3,09,27,09,277,,1*53
$GLGSV,2,1,07,69,34,286,19,84,40,305,20,67,26,063,26,68,60,002,38,1*79
$GLGSV,2,2,07,79,01,158,,83,37,215,,85,00,000,,1*48
$GNGSA,A,3,10,15,18,23,24,32,,,,,,,1.5,1.2,0.9,1*35
$GNGSA,A,3,67,68,84,,,,,,,,,,1.5,1.2,0.9,2*3F
$GNVTG,,T,,M,0.0,N,0.0,K,A*3D
$GNDTM,P90,,0000.000026,S,00000.000002,E,0.978,W84*5E
$GNRMC,062552.00,A,4302.107595,N,07620.603511,W,0.0,,050324,9.5,W,A,V*7C
$GNGNS,062552.00,4302.107595,N,07620.603511,W,AANNNN,09,1.2,214.7,-38.9,,,V*1A
$GNGGA,062552.00,4302.107595,N,07620.603511,W,1,09,1.2,214.7,M,-38.9,M,,*4A
$GPGSV,3,1,09,10,47,307,32,15,28,064,33,18,41,184,25,23,79,022,37,1*69
$GPGSV,3,2,09,24,56,081,36,32,30,253,23,08,05,310,,22,02,033,,1*6F
$GPGSV,3,3,09,27,09,277,,1*53
$GLGSV,2,1,07,69,34,286,20,84,40,305,20,67,26,063,27,68,60,002,34,1*7E
$GLGSV,2,2,07,79,01,158,,83,37,215,,85,00,000,,1*48
$GNGSA,A,3,10,15,18,23,24,32,,,,,,,1.5,1.2,0.9,1*35
$GNGSA,A,3,67,68,84,,,,,,,,,,1.5,1.2,0.9,2*3F
$GNVTG,,T,,M,0.0,N,0.0,K,A*3D
$GNDTM,P90,,0000.000026,S,00000.000002,E,0.978,W84*5E
$GNRMC,062553.00,A,4302.107588,N,07620.603514,W,0.0,,050324,9.5,W,A,V*74
$GNGNS,062553.00,4302.107588,N,07620.603514,W,AANNNN,09,1.2,214.7,-38.9,,,V*12
$GNGGA,062553.00,4302.107588,N,07620.603514,W,1,09,1.2,214.7,M,-38.9,M,,*42
$GPGSV,3,1,09,10,47,307,32,15,28,064,33,18,41,184,26,23,79,022,37,1*6A
$GPGSV,3,2,09,24,56,081,37,32,30,253,20,08,05,310,,22,02,033,,1*6D
$GPGSV,3,3,09,27,09,277,,1*53
$GLGSV,2,1,07,69,34,286,22,84,40,305,20,67,26,063,27,68,60,002,33,1*7B
$GLGSV,2,2,07,79,01,158,,83,37,215,,85,00,000,,1*48
$GNGSA,A,3,10,15,18,23,24,32,,,,,,,1.5,1.2,0.9,1*35
$GNGSA,A,3,67,68,84,,,,,,,,,,1.5,1.2,0.9,2*3F
$GNVTG,,T,,M,0.0,N,0.0,K,A*3D
$GNDTM,P90,,0000.000026,S,00000.000002,E,0.978,W84*5E
$GNRMC,062554.00,A,4302.107583,N,07620.603516,W,0.0,,050324,9.5,W,A,V*7A
$GNGNS,062554.00,4302.107583,N,07620.603516,W,AANNNN,09,1.2,214.7,-38.9,,,V*1C
$GNGGA,062554.00,4302.107583,N,07620.603516,W,1,09,1.2,214.7,M,-38.9,M,,*4C
$GPGSV,3,1,09,10,47,307,33,15,28,064,33,18,41,184,27,23,79,022,38,1*65
$GPGSV,3,2,09,24,56,081,37,32,30,253,20,08,05,310,,22,02,033,,1*6D
$GPGSV,3,3,09,27,09,277,,1*53
$GLGSV,2,1,07,69,34,286,21,84,40,305,20,67,26,063,25,68,60,002,36,1*7F
$GLGSV,2,2,07,79,01,158,,83,37,215,,85,00,000,,1*48
$GNGSA,A,3,10,15,18,23,24,32,,,,,,,1.5,1.2,0.9,1*35
$GNGSA,A,3,67,68,84,,,,,,,,,,1.5,1.2,0.9,2*3F
$GNVTG,186.7,T,186.7,M,0.5,N,0.9,K,A*31
$GNDTM,P90,,0000.000026,S,00000.000002,E,0.978,W84*5E
$GNRMC,062555.00,A,4302.107574,N,07620.603527,W,0.5,186.7,050324,9.5,W,A,V*52
$GNGNS,062555.00,4302.107574,N,07620.603527,W,AANNNN,09,1.2,215.0,-38.9,,,V*11
$GNGGA,062555.00,4302.107574,N,07620.603527,W,1,09,1.2,215.0,M,-38.9,M,,*41
$GPGSV,3,1,09,10,47,307,37,15,28,064,34,18,41,184,28,23,79,022,39,1*68
$GPGSV,3,2,09,24,56,081,38,32,30,253,21,08,05,310,,22,02,033,,1*63
$GPGSV,3,3,09,27,09,277,,1*53
$GLGSV,2,1,07,69,34,286,21,84,40,305,25,67,26,063,27,68,60,002,40,1*79
$GLGSV,2,2,07,79,01,158,,83,37,215,,85,00,000,,1*48
$GNGSA,A,3,10,15,18,23,24,32,,,,,,,1.5,1.2,0.9,1*35
$GNGSA,A,3,67,68,84,,,,,,,,,,1.5,1.2,0.9,2*3F
$GNVTG,,T,,M,0.0,N,0.0,K,A*3D
$GNDTM,P90,,0000.000026,S,00000.000002,E,0.978,W84*5E
$GNRMC,062556.00,A,4302.107472,N,07620.603512,W,0.0,,050324,9.5,W,A,V*73
$GNGNS,062556.00,4302.107472,N,07620.603512,W,AANNNN,09,1.2,214.5,-38.9,,,V*17
$GNGGA,062556.00,4302.107472,N,07620.603512,W,1,09,1.2,214.5,M,-38.9,M,,*47
$GPGSV,3,1,09,10,47,307,34,15,28,064,31,18,41,184,24,23,79,022,36,1*6D
$GPGSV,3,2,09,24,56,081,35,27,09,277,16,32,30,253,22,08,05,310,,1*66
$GPGSV,3,3,09,22,02,033,,1*5F
$GLGSV,2,1,07,69,34,286,21,84,40,305,22,67,26,063,24,68,60,002,38,1*72
$GLGSV,2,2,07,79,01,158,,83,37,215,,85,00,000,,1*48
$GNGSA,A,3,10,15,18,23,24,27,32,,,,,,1.4,1.1,0.8,1*33
$GNGSA,A,3,67,68,84,,,,,,,,,,1.4,1.1,0.8,2*3C
$GNVTG,,T,,M,0.0,N,0.0,K,A*3D
$GNDTM,P90,,0000.000026,S,00000.000002,E,0.978,W84*5E
$GNRMC,062557.00,A,4302.107293,N,07620.603567,W,0.0,,050324,9.5,W,A,V*79
$GNGNS,062557.00,4302.107293,N,07620.603567,W,AANNNN,10,1.1,213.1,-38.9,,,V*15
$GNGGA,062557.00,4302.107293,N,07620.603567,W,1,10,1.1,213.1,M,-38.9,M,,*45
$GPGSV,3,1,09,10,47,307,31,15,28,064,28,18,41,184,23,23,79,022,36,1*67
$GPGSV,3,2,09,24,56,081,33,27,09,277,16,32,30,253,22,08,05,310,,1*60
$GPGSV,3,3,09,22,02,033,,1*5F
$GLGSV,2,1,07,69,34,286,21,84,40,305,19,67,26,063,24,68,60,002,36,1*74
$GLGSV,2,2,07,79,01,158,,83,37,215,,85,00,000,,1*48
$GNGSA,A,3,10,15,18,23,24,27,32,,,,,,1.4,1.1,0.8,1*33
$GNGSA,A,3,67,68,84,,,,,,,,,,1.4,1.1,0.8,2*3C
$GNVTG,,T,,M,0.0,N,0.0,K,A*3D
$GNDTM,P90,,0000.000026,S,00000.000002,E,0.978,W84*5E
$GNRMC,062558.00,A,4302.107351,N,07620.603650,W,0.0,,050324,9.5,W,A,V*7E
$GNGNS,062558.00,4302.107351,N,07620.603650,W,AANNNN,10,1.1,213.5,-38.9,,,V*16
$GNGGA,062558.00,4302.107351,N,07620.603650,W,1,10,1.1,213.5,M,-38.9,M,,*46
$GPGSV,3,1,09,10,47,307,32,15,28,064,28,18,41,184,25,23,79,022,37,1*63
$GPGSV,3,2,09,24,56,081,34,27,09,277,16,32,30,253,22,08,05,310,,1*67
$GPGSV,3,3,09,22,02,033,,1*5F
$GLGSV,2,1,07,69,34,286,21,84,40,305,22,67,26,063,26,68,60,002,37,1*7F
$GLGSV,2,2,07,79,01,158,,83,37,215,,85,00,000,,1*48
$GNGSA,A,3,10,15,18,23,24,27,32,,,,,,1.4,1.1,0.8,1*33
$GNGSA,A,3,67,68,84,,,,,,,,,,1.4,1.1,0.8,2*3C
$GNVTG,,T,,M,0.0,N,0.0,K,A*3D
$GNDTM,P90,,0000.000026,S,00000.000002,E,0.978,W84*5E
$GNRMC,062559.00,A,4302.107373,N,07620.603775,W,0.0,,050324,9.5,W,A,V*79
$GNGNS,062559.00,4302.107373,N,07620.603775,W,AANNNN,10,1.1,213.0,-38.9,,,V*14
$GNGGA,062559.00,4302.107373,N,07620.603775,W,1,10,1.1,213.0,M,-38.9,M,,*44
$GPGSV,3,1,09,10,47,307,31,15,28,064,28,18,41,184,21,23,79,022,35,1*66
$GPGSV,3,2,09,24,56,081,33,27,09,277,16,32,30,253,22,08,05,310,,1*60
$GPGSV,3,3,09,22,02,033,,1*5F
$GLGSV,2,1,07,69,34,286,21,84,40,305,22,67,26,063,23,68,60,002,36,1*7B
$GLGSV,2,2,07,79,01,158,,83,37,215,,85,00,000,,1*48
$GNGSA,A,3,10,15,18,23,24,27,32,,,,,,1.4,1.1,0.8,1*33
$GNGSA,A,3,67,68,84,,,,,,,,,,1.4,1.1,0.8,2*3C
$GNVTG,154.0,T,154.0,M,0.4,N,0.7,K,A*3E
$GNDTM,P90,,0000.000026,S,00000.000002,E,0.978,W84*5E
$GNRMC,062600.00,A,4302.107366,N,07620.603741,W,0.4,154.0,050324,9.5,W,A,V*5F
$GNGNS,062600.00,4302.107366,N,07620.603741,W,AANNNN,10,1.1,212.8,-38.9,,,V*11
$GNGGA,062600.00,4302.107366,N,07620.603741,W,1,10,1.1,212.8,M,-38.9,M,,*41
$GPGSV,3,1,09,10,47,307,31,15,28,064,26,18,41,184,24,23,79,022,36,1*6E
$GPGSV,3,2,09,24,56,081,33,27,09,277,16,32,30,253,22,08,05,310,,1*60
$GPGSV,3,3,09,22,02,033,,1*5F
$GLGSV,2,1,07,69,34,286,16,84,40,305,22,67,26,063,25,68,60,002,36,1*79
$GLGSV,2,2,07,79,01,158,,83,37,215,,85,00,000,,1*48
$GNGSA,A,3,10,15,18,23,24,27,32,,,,,,1.4,1.1,0.8,1*33
$GNGSA,A,3,67,68,84,,,,,,,,,,1.4,1.1,0.8,2*3C
$GNVTG,,T,,M,0.0,N,0.0,K,A*3D
$GNDTM,P90,,0000.000026,S,00000.000002,E,0.978,W84*5E
$GNRMC,062601.00,A,4302.107464,N,07620.603775,W,0.0,,050324,9.5,W,A,V*76
$GNGNS,062601.00,4302.107464,N,07620.603775,W,AANNNN,10,1.1,212.8,-38.9,,,V*12
$GNGGA,062601.00,4302.107464,N,07620.603775,W,1,10,1.1,212.8,M,-38.9,M,,*42
$GPGSV,3,1,09,10,47,307,31,15,28,064,28,18,41,184,24,23,79,022,36,1*60
$GPGSV,3,2,09,24,56,081,34,27,09,277,16,32,30,253,22,08,05,310,,1*67
$GPGSV,3,3,09,22,02,033,,1*5F
$GLGSV,2,1,07,69,34,286,16,84,40,305,17,67,26,063,25,68,60,002,36,1*7F
$GLGSV,2,2,07,79,01,158,,83,37,215,,85,00,000,,1*48
$GNGSA,A,3,10,15,18,23,24,27,32,,,,,,1.4,1.1,0.8,1*33
$GNGSA,A,3,67,68,84,,,,,,,,,,1.4,1.1,0.8,2*3C
$GNVTG,,T,,M,0.0,N,0.0,K,A*3D
$GNDTM,P90,,0000.000026,S,00000.000002,E,0.978,W84*5E
$GNRMC,062602.00,A,4302.107436,N,07620.603815,W,0.0,,050324,9.5,W,A,V*7B
$GNGNS,062602.00,4302.107436,N,07620.603815,W,AANNNN,10,1.1,212.3,-38.9,,,V*14
$GNGGA,062602.00,4302.107436,N,07620.603815,W,1,10,1.1,212.3,M,-38.9,M,,*44
$GPGSV,3,1,09,10,47,307,32,15,28,064,26,18,41,184,25,23,79,022,36,1*6C
$GPGSV,3,2,09,24,56,081,33,27,09,277,16,32,30,253,16,08,05,310,,1*67
$GPGSV,3,3,09,22,02,033,,1*5F
$GLGSV,2,1,07,69,34,286,16,84,40,305,21,67,26,063,26,68,60,002,37,1*78
$GLGSV,2,2,07,79,01,158,,83,37,215,,85,00,000,,1*48
$GNGSA,A,3,10,15,18,23,24,27,32,,,,,,1.4,1.1,0.8,1*33
$GNGSA,A,3,67,68,84,,,,,,,,,,1.4,1.1,0.8,2*3C
$GNVTG,,T,,M,0.0,N,0.0,K,A*3D
$GNDTM,P90,,0000.000026,S,00000.000002,E,0.978,W84*5E
$GNRMC,062603.00,A,4302.107264,N,07620.603941,W,0.0,,050324,9.5,W,A,V*7B
$GNGNS,062603.00,4302.107264,N,07620.603941,W,AANNNN,10,1.1,211.8,-38.9,,,V*1C
$GNGGA,062603.00,4302.107264,N,07620.603941,W,1,10,1.1,211.8,M,-38.9,M,,*4C
$GPGSV,3,1,09,10,47,307,33,15,28,064,27,18,41,184,26,23,79,022,37,1*6E
$GPGSV,3,2,09,24,56,081,33,27,09,277,16,32,30,253,16,08,05,310,,1*67
$GPGSV,3,3,09,22,02,033,,1*5F
$GLGSV,2,1,07,69,34,286,19,84,40,305,22,67,26,063,26,68,60,002,37,1*74
$GLGSV,2,2,07,79,01,158,,83,37,215,,85,00,000,,1*48
$GNGSA,A,3,10,15,18,23,24,32,,,,,,,1.5,1.2,0.9,1*35
$GNGSA,A,3,67,68,84,,,,,,,,,,1.5,1.2,0.9,2*3F
$GNVTG,,T,,M,0.0,N,0.0,K,A*3D
$GNDTM,P90,,0000.000026,S,00000.000002,E,0.978,W84*5E
$GNRMC,062604.00,A,4302.107251,N,07620.604018,W,0.0,,050324,9.5,W,A,V*78
$GNGNS,062604.00,4302.107251,N,07620.604018,W,AANNNN,09,1.2,211.3,-38.9,,,V*1F
$GNGGA,062604.00,4302.107251,N,07620.604018,W,1,09,1.2,211.3,M,-38.9,M,,*4F
$GPGSV,3,1,09,10,47,307,34,15,28,064,28,18,41,184,25,23,79,022,37,1*65
$GPGSV,3,2,09,24,56,081,34,27,09,277,16,32,30,253,16,08,05,310,,1*60
$GPGSV,3,3,09,22,02,033,,1*5F
$GLGSV,2,1,07,69,34,286,19,84,40,305,23,67,26,063,27,68,60,002,39,1*7A
$GLGSV,2,2,07,79,01,158,,83,37,215,,85,00,000,,1*48
$GNGSA,A,3,10,15,18,23,24,32,,,,,,,1.5,1.2,0.9,1*35
$GNGSA,A,3,67,68,84,,,,,,,,,,1.5,1.2,0.9,2*3F
$GNVTG,,T,,M,0.0,N,0.0,K,A*3D
$GNDTM,P90,,0000.000026,S,00000.000002,E,0.978,W84*5E
$GNRMC,062605.00,A,4302.107184,N,07620.604109,W,0.0,,050324,9.5,W,A,V*73
$GNGNS,062605.00,4302.107184,N,07620.604109,W,AANNNN,09,1.2,211.0,-38.9,,,V*17
$GNGGA,062605.00,4302.107184,N,07620.604109,W,1,09,1.2,211.0,M,-38.9,M,,*47
$GPGSV,3,1,09,10,47,307,33,15,28,064,26,18,41,184,23,23,79,022,37,1*6A
$GPGSV,3,2,09,24,56,081,34,27,09,277,16,32,30,253,16,08,05,310,,1*60
$GPGSV,3,3,09,22,02,033,,1*5F
$GLGSV,2,1,07,69,34,286,19,84,40,305,22,67,26,063,26,68,60,002,37,1*74
$GLGSV,2,2,07,79,01,158,,83,37,215,,85,00,000,,1*48
$GNGSA,A,3,10,15,18,23,24,32,,,,,,,1.5,1.2,0.9,1*35
$GNGSA,A,3,67,68,84,,,,,,,,,,1.5,1.2,0.9,2*3F
$GNVTG,,T,,M,0.0,N,0.0,K,A*3D
$GNDTM,P90,,0000.000026,S,00000.000002,E,0.978,W84*5E
$GNRMC,062606.00,A,4302.107124,N,07620.604172,W,0.0,,050324,9.5,W,A,V*76
$GNGNS,062606.00,4302.107124,N,07620.604172,W,AANNNN,09,1.2,211.1,-38.9,,,V*13
$GNGGA,062606.00,4302.107124,N,07620.604172,W,1,09,1.2,211.1,M,-38.9,M,,*43
$GPGSV,3,1,09,10,47,307,31,15,28,064,27,18,41,184,23,23,79,022,36,1*68
$GPGSV,3,2,09,24,56,081,33,27,09,277,16,32,30,253,16,08,05,310,,1*67
$GPGSV,3,3,09,22,02,033,,1*5F
$GLGSV,2,1,07,69,34,286,19,84,40,305,22,67,26,063,25,68,60,002,37,1*77
$GLGSV,2,2,07,79,01,158,,83,37,215,,85,00,000,,1*48
$GNGSA,A,3,10,15,18,23,24,32,,,,,,,1.5,1.2,0.9,1*35
$GNGSA,A,3,67,68,84,,,,,,,,,,1.5,1.2,0.9,2*3F
$GNVTG,,T,,M,0.0,N,0.0,K,A*3D
$GNDTM,P90,,0000.000026,S,00000.000002,E,0.978,W84*5E
$GNRMC,062607.00,A,4302.106845,N,07620.604230,W,0.0,,050324,9.5,W,A,V*7D
$GNGNS,062607.00,4302.106845,N,07620.604230,W,AANNNN,09,1.2,210.8,-38.9,,,V*10
$GNGGA,062607.00,4302.106845,N,07620.604230,W,1,09,1.2,210.8,M,-38.9,M,,*40
$GPGSV,3,1,09,10,47,307,31,15,28,064,27,18,41,184,22,23,79,022,34,1*6B
$GPGSV,3,2,09,24,56,081,33,27,09,277,16,32,30,253,16,08,05,310,,1*67
$GPGSV,3,3,09,22,02,033,,1*5F
$GLGSV,2,1,07,69,34,286,19,84,40,305,22,67,26,063,20,68,60,002,35,1*70
$GLGSV,2,2,07,79,01,158,,83,37,215,,85,00,000,,1*48
$GNGSA,A,3,10,15,18,23,24,32,,,,,,,1.5,1.2,0.9,1*35
$GNGSA,A,3,67,68,84,,,,,,,,,,1.5,1.2,0.9,2*3F
$GNVTG,,T,,M,0.0,N,0.0,K,A*3D
$GNDTM,P90,,0000.000026,S,00000.000002,E,0.978,W84*5E
$GNRMC,062608.00,A,4302.106585,N,07620.604256,W,0.0,,050324,9.5,W,A,V*73
$GNGNS,062608.00,4302.106585,N,07620.604256,W,AANNNN,09,1.2,210.9,-38.9,,,V*1F
$GNGGA,062608.00,4302.106585,N,07620.604256,W,1,09,1.2,210.9,M,-38.9,M,,*4F
$GPGSV,3,1,09,10,47,307,34,15,28,064,28,18,41,184,26,23,79,022,39,1*68
$GPGSV,3,2,09,24,56,081,36,27,09,277,16,32,30,253,16,08,05,310,,1*62
$GPGSV,3,3,09,22,02,033,,1*5F
$GLGSV,2,1,07,69,34,286,19,84,40,305,20,67,26,063,28,68,60,002,40,1*78
$GLGSV,2,2,07,79,01,158,,83,37,215,,85,00,000,,1*48
$GNGSA,A,3,10,15,18,23,24,32,,,,,,,1.5,1.2,0.9,1*35
$GNGSA,A,3,67,68,84,,,,,,,,,,1.5,1.2,0.9,2*3F
$GNVTG,,T,,M,0.0,N,0.0,K,A*3D
$GNDTM,P90,,0000.000026,S,00000.000002,E,0.978,W84*5E
$GNRMC,062609.00,A,4302.106416,N,07620.604320,W,0.0,,050324,9.5,W,A,V*79
$GNGNS,062609.00,4302.106416,N,07620.604320,W,AANNNN,09,1.2,211.2,-38.9,,,V*1F
$GNGGA,062609.00,4302.106416,N,07620.604320,W,1,09,1.2,211.2,M,-38.9,M,,*4F
$GPGSV,3,1,09,10,47,307,35,15,28,064,29,18,41,184,27,23,79,022,40,1*67
$GPGSV,3,2,09,24,56,081,36,27,09,277,16,32,30,253,20,08,05,310,,1*67
$GPGSV,3,3,09,22,02,033,,1*5F
$GLGSV,2,1,07,69,34,286,19,84,40,305,26,67,26,063,28,68,60,002,40,1*7E
$GLGSV,2,2,07,79,01,158,,83,37,215,,85,00,000,,1*48
$GNGSA,A,3,10,15,18,23,24,32,,,,,,,1.5,1.2,0.9,1*35
$GNGSA,A,3,67,68,84,,,,,,,,,,1.5,1.2,0.9,2*3F
$GNVTG,,T,,M,0.0,N,0.0,K,A*3D
$GNDTM,P90,,0000.000026,S,00000.000002,E,0.978,W84*5E
$GNRMC,062610.00,A,4302.106260,N,07620.604484,W,0.0,,050324,9.5,W,A,V*7F
$GNGNS,062610.00,4302.106260,N,07620.604484,W,AANNNN,09,1.2,211.1,-38.9,,,V*1A
$GNGGA,062610.00,4302.106260,N,07620.604484,W,1,09,1.2,211.1,M,-38.9,M,,*4A
$GPGSV,3,1,09,10,47,307,34,15,28,064,29,18,41,184,27,23,79,022,40,1*66
$GPGSV,3,2,09,24,56,081,36,27,09,277,16,32,30,253,21,08,05,310,,1*66
$GPGSV,3,3,09,22,02,033,,1*5F
$GLGSV,2,1,07,69,34,286,19,84,40,305,24,67,26,063,28,68,60,002,40,1*7C
$GLGSV,2,2,07,79,01,158,,83,37,215,,85,00,000,,1*48
$GNGSA,A,3,10,15,18,23,24,32,,,,,,,1.5,1.2,0.9,1*35
$GNGSA,A,3,67,68,84,,,,,,,,,,1.5,1.2,0.9,2*3F
$GNVTG,,T,,M,0.0,N,0.0,K,A*3D
$GNDTM,P90,,0000.000026,S,00000.000002,E,0.978,W84*5E
$GNRMC,062611.00,A,4302.106175,N,07620.604591,W,0.0,,050324,9.5,W,A,V*7C
$GNGNS,062611.00,4302.106175,N,07620.604591,W,AANNNN,09,1.2,211.1,-38.9,,,V*19
$GNGGA,062611.00,4302.106175,N,07620.604591,W,1,09,1.2,211.1,M,-38.9,M,,*49
$GPGSV,3,1,09,10,47,307,34,15,28,064,28,18,41,184,27,23,79,022,39,1*69
$GPGSV,3,2,09,24,56,081,36,27,09,277,16,32,30,253,21,08,05,310,,1*66
$GPGSV,3,3,09,22,02,033,,1*5F
$GLGSV,2,1,07,69,34,286,22,84,40,305,24,67,26,063,26,68,60,002,40,1*7A
$GLGSV,2,2,07,79,01,158,,83,37,215,,85,00,000,,1*48
$GNGSA,A,3,10,15,18,23,24,32,,,,,,,1.5,1.2,0.9,1*35
$GNGSA,A,3,67,68,84,,,,,,,,,,1.5,1.2,0.9,2*3F
$GNVTG,,T,,M,0.0,N,0.0,K,A*3D
$GNDTM,P90,,0000.000026,S,00000.000002,E,0.978,W84*5E
$GNRMC,062612.00,A,4302.106109,N,07620.604658,W,0.0,,050324,9.5,W,A,V*72
$GNGNS,062612.00,4302.106109,N,07620.604658,W,AANNNN,09,1.2,211.0,-38.9,,,V*16
$GNGGA,062612.00,4302.106109,N,07620.604658,W,1,09,1.2,211.0,M,-38.9,M,,*46
$GPGSV,3,1,09,10,47,307,34,15,28,064,29,18,41,184,25,23,79,022,40,1*64
$GPGSV,3,2,09,24,56,081,36,27,09,277,16,32,30,253,21,08,05,310,,1*66
$GPGSV,3,3,09,22,02,033,,1*5F
$GLGSV,2,1,07,69,34,286,24,84,40,305,25,67,26,063,26,68,60,002,40,1*7D
$GLGSV,2,2,07,79,01,158,,83,37,215,,85,00,000,,1*48
$GNGSA,A,3,10,15,18,23,24,32,,,,,,,1.5,1.2,0.9,1*35
$GNGSA,A,3,67,68,84,,,,,,,,,,1.5,1.2,0.9,2*3F
$GNVTG,,T,,M,0.0,N,0.0,K,A*3D
$GNDTM,P90,,0000.000026,S,00000.000002,E,0.978,W84*5E
$GNRMC,062613.00,A,4302.106067,N,07620.604707,W,0.0,,050324,9.5,W,A,V*71
$GNGNS,062613.00,4302.106067,N,07620.604707,W,AANNNN,09,1.2,211.0,-38.9,,,V*15
$GNGGA,062613.00,4302.106067,N,07620.604707,W,1,09,1.2,211.0,M,-38.9,M,,*45
$GPGSV,3,1,09,10,47,307,34,15,28,064,30,18,41,184,26,23,79,022,40,1*6F
$GPGSV,3,2,09,24,56,081,36,27,09,277,16,32,30,253,18,08,05,310,,1*6C
$GPGSV,3,3,09,22,02,033,,1*5F
$GLGSV,2,1,07,69,34,286,25,84,40,305,24,67,26,063,26,68,60,002,40,1*7D
$GLGSV,2,2,07,79,01,158,,83,37,215,,85,00,000,,1*48
$GNGSA,A,3,10,15,18,23,24,,,,,,,,1.5,1.2,0.9,1*34
$GNGSA,A,3,67,68,84,,,,,,,,,,1.5,1.2,0.9,2*3F
$GNVTG,,T,,M,0.0,N,0.0,K,A*3D
$GNDTM,P90,,0000.000026,S,00000.000002,E,0.978,W84*5E
$GNRMC,062614.00,A,4302.106043,N,07620.604736,W,0.0,,050324,9.5,W,A,V*72
$GNGNS,062614.00,4302.106043,N,07620.604736,W,AANNNN,08,1.2,211.0,-38.9,,,V*17
$GNGGA,062614.00,4302.106043,N,07620.604736,W,1,08,1.2,211.0,M,-38.9,M,,*47
$GPGSV,3,1,09,10,47,307,31,15,28,064,26,18,41,184,24,23,79,022,37,1*6F
$GPGSV,3,2,09,24,56,081,34,27,09,277,16,32,30,253,18,08,05,310,,1*6E
$GPGSV,3,3,09,22,02,033,,1*5F
$GLGSV,2,1,07,69,34,286,23,84,40,305,23,67,26,063,23,68,60,002,37,1*79
$GLGSV,2,2,07,79,01,158,,83,37,215,,85,00,000,,1*48
$GNGSA,A,3,10,15,18,23,24,,,,,,,,1.5,1.2,0.9,1*34
$GNGSA,A,3,67,68,84,,,,,,,,,,1.5,1.2,0.9,2*3F
$GNVTG,,T,,M,0.0,N,0.0,K,A*3D
$GNDTM,P90,,0000.000026,S,00000.000002,E,0.978,W84*5E
$GNRMC,062615.00,A,4302.106029,N,07620.604758,W,0.0,,050324,9.5,W,A,V*77
$GNGNS,062615.00,4302.106029,N,07620.604758,W,AANNNN,08,1.2,211.0,-38.9,,,V*12
$GNGGA,062615.00,4302.106029,N,07620.604758,W,1,08,1.2,211.0,M,-38.9,M,,*42
$GPGSV,3,1,09,10,47,307,32,15,28,064,28,18,41,184,24,23,79,022,37,1*62
$GPGSV,3,2,09,24,56,081,34,27,09,277,16,32,30,253,18,08,05,310,,1*6E
$GPGSV,3,3,09,22,02,033,,1*5F
$GLGSV,2,1,07,69,34,286,23,84,40,305,23,67,26,063,23,68,60,002,37,1*79
$GLGSV,2,2,07,79,01,158,,83,37,215,,85,00,000,,1*48
$GNGSA,A,3,10,15,18,23,24,,,,,,,,1.5,1.2,0.9,1*34
$GNGSA,A,3,67,68,84,,,,,,,,,,1.5,1.2,0.9,2*3F
$GNVTG,,T,,M,0.0,N,0.0,K,A*3D
$GNDTM,P90,,0000.000026,S,00000.000002,E,0.978,W84*5E
$GNRMC,062616.00,A,4302.106021,N,07620.604773,W,0.0,,050324,9.5,W,A,V*75
$GNGNS,062616.00,4302.106021,N,07620.604773,W,AANNNN,08,1.2,210.9,-38.9,,,V*18
$GNGGA,062616.00,4302.106021,N,07620.604773,W,1,08,1.2,210.9,M,-38.9,M,,*48
$GPGSV,3,1,09,10,47,307,30,15,28,064,33,18,41,184,25,23,79,022,36,1*6A
$GPGSV,3,2,09,24,56,081,36,27,09,277,16,32,30,253,19,08,05,310,,1*6D
$GPGSV,3,3,09,22,02,033,,1*5F
$GLGSV,2,1,07,69,34,286,23,84,40,305,21,67,26,063,25,68,60,002,33,1*79
$GLGSV,2,2,07,79,01,158,,83,37,215,,85,00,000,,1*48
$GNGSA,A,3,10,15,18,23,24,32,,,,,,,1.5,1.2,0.9,1*35
$GNGSA,A,3,67,68,84,,,,,,,,,,1.5,1.2,0.9,2*3F
$GNVTG,,T,,M,0.0,N,0.0,K,A*3D
$GNDTM,P90,,0000.000026,S,00000.000002,E,0.978,W84*5E
$GNRMC,062617.00,A,4302.106027,N,07620.604772,W,0.0,,050324,9.5,W,A,V*73
$GNGNS,062617.00,4302.106027,N,07620.604772,W,AANNNN,09,1.2,211.0,-38.9,,,V*17
$GNGGA,062617.00,4302.106027,N,07620.604772,W,1,09,1.2,211.0,M,-38.9,M,,*47
$GPGSV,3,1,09,10,47,307,30,15,28,064,33,18,41,184,25,23,79,022,37,1*6B
$GPGSV,3,2,09,24,56,081,36,32,30,253,19,08,05,310,,22,02,033,,1*66
$GPGSV,3,3,09,27,09,277,,1*53
$GLGSV,2,1,07,69,34,286,23,84,40,305,21,67,26,063,23,68,60,002,34,1*78
$GLGSV,2,2,07,79,01,158,,83,37,215,,85,00,000,,1*48
$GNGSA,A,3,10,15,18,23,24,32,,,,,,,1.5,1.2,0.9,1*35
$GNGSA,A,3,67,68,84,,,,,,,,,,1.5,1.2,0.9,2*3F
$GNVTG,,T,,M,0.0,N,0.0,K,A*3D
$GNDTM,P90,,0000.000026,S,00000.000002,E,0.978,W84*5E
$GNRMC,062618.00,A,4302.106031,N,07620.604771,W,0.0,,050324,9.5,W,A,V*78
$GNGNS,062618.00,4302.106031,N,07620.604771,W,AANNNN,09,1.2,211.0,-38.9,,,V*1C
$GNGGA,062618.00,4302.106031,N,07620.604771,W,1,09,1.2,211.0,M,-38.9,M,,*4C
$GPGSV,3,1,09,10,47,307,31,15,28,064,31,18,41,184,26,23,79,022,38,1*64
$GPGSV,3,2,09,24,56,081,36,32,30,253,21,08,05,310,,22,02,033,,1*6D
$GPGSV,3,3,09,27,09,277,,1*53
$GLGSV,2,1,08,69,34,286,18,84,40,305,22,67,26,063,22,68,60,002,36,1*7F
$GLGSV,2,2,08,76,01,011,,79,01,158,,83,37,215,,85,00,000,,1*77
$GNGSA,A,3,10,15,18,23,24,32,,,,,,,1.5,1.2,0.9,1*35
$GNGSA,A,3,67,68,84,,,,,,,,,,1.5,1.2,0.9,2*3F
$GNVTG,,T,,M,0.0,N,0.0,K,A*3D
$GNDTM,P90,,0000.000026,S,00000.000002,E,0.978,W84*5E
$GNRMC,062619.00,A,4302.106073,N,07620.604746,W,0.0,,050324,9.5,W,A,V*7B
$GNGNS,062619.00,4302.106073,N,07620.604746,W,AANNNN,09,1.2,211.1,-38.9,,,V*1E
$GNGGA,062619.00,4302.106073,N,07620.604746,W,1,09,1.2,211.1,M,-38.9,M,,*4E
$GPGSV,3,1,09,10,47,307,31,15,28,064,31,18,41,184,27,23,79,022,37,1*6A
$GPGSV,3,2,09,24,56,081,36,32,30,253,24,08,05,310,,22,02,033,,1*68
$GPGSV,3,3,09,27,09,277,,1*53
$GLGSV,2,1,08,69,34,286,18,84,40,305,20,67,26,063,22,68,60,002,35,1*7E
$GLGSV,2,2,08,76,01,011,,79,01,158,,83,37,215,,85,00,000,,1*77
$GNGSA,A,3,10,15,18,23,24,32,,,,,,,1.5,1.2,0.9,1*35
$GNGSA,A,3,67,68,84,,,,,,,,,,1.5,1.2,0.9,2*3F
$GNVTG,,T,,M,0.0,N,0.0,K,A*3D
$GNDTM,P90,,0000.000026,S,00000.000002,E,0.978,W84*5E
$GNRMC,062620.00,A,4302.106179,N,07620.604683,W,0.0,,050324,9.5,W,A,V*72
$GNGNS,062620.00,4302.106179,N,07620.604683,W,AANNNN,09,1.2,211.5,-38.9,,,V*13
$GNGGA,062620.00,4302.106179,N,07620.604683,W,1,09,1.2,211.5,M,-38.9,M,,*43
$GPGSV,3,1,09,10,47,307,31,15,28,064,31,18,41,184,26,23,79,022,38,1*64
$GPGSV,3,2,09,24,56,081,36,32,30,253,21,08,05,310,,22,02,033,,1*6D
$GPGSV,3,3,09,27,09,277,,1*53
$GLGSV,2,1,08,69,34,286,20,84,40,305,22,67,26,063,23,68,60,002,36,1*75
$GLGSV,2,2,08,76,01,011,,79,01,158,,83,37,215,,85,00,000,,1*77
$GNGSA,A,3,10,15,18,23,24,32,,,,,,,1.5,1.2,0.9,1*35
$GNGSA,A,3,67,68,84,,,,,,,,,,1.5,1.2,0.9,2*3F
$GNVTG,,T,,M,0.0,N,0.0,K,A*3D
$GNDTM,P90,,0000.000026,S,00000.000002,E,0.978,W84*5E
$GNRMC,062621.00,A,4302.106286,N,07620.604619,W,0.0,,050324,9.5,W,A,V*73
$GNGNS,062621.00,4302.106286,N,07620.604619,W,AANNNN,09,1.2,211.6,-38.9,,,V*11
$GNGGA,062621.00,4302.106286,N,07620.604619,W,1,09,1.2,211.6,M,-38.9,M,,*41
$GPGSV,3,1,09,10,47,307,31,15,28,064,31,18,41,184,26,23,79,022,38,1*64
$GPGSV,3,2,09,24,56,081,37,32,30,253,21,08,05,310,,22,02,033,,1*6C
$GPGSV,3,3,09,27,09,277,,1*53
$GLGSV,2,1,08,69,34,286,20,84,40,305,22,67,26,063,24,68,60,002,36,1*72
$GLGSV,2,2,08,76,01,011,,79,01,158,,83,37,215,,85,00,000,,1*77
$GNGSA,A,3,10,15,18,23,24,32,,,,,,,1.5,1.2,0.9,1*35
$GNGSA,A,3,67,68,84,,,,,,,,,,1.5,1.2,0.9,2*3F
$GNVTG,,T,,M,0.0,N,0.0,K,A*3D
$GNDTM,P90,,0000.000026,S,00000.000002,E,0.978,W84*5E
$GNRMC,062622.00,A,4302.106337,N,07620.604587,W,0.0,,050324,9.5,W,A,V*7F
$GNGNS,062622.00,4302.106337,N,07620.604587,W,AANNNN,09,1.2,211.6,-38.9,,,V*1D
$GNGGA,062622.00,4302.106337,N,07620.604587,W,1,09,1.2,211.6,M,-38.9,M,,*4D
$GPGSV,3,1,09,10,47,307,32,15,28,064,31,18,41,184,24,23,79,022,39,1*64
$GPGSV,3,2,09,24,56,081,36,32,30,253,19,08,05,310,,22,02,033,,1*66
$GPGSV,3,3,09,27,09,277,,1*53
$GLGSV,3,1,09,69,34,286,23,84,40,305,23,67,26,063,24,68,60,002,37,1*71
$GLGSV,3,2,09,77,26,047,,76,01,011,,79,01,158,,83,37,215,,1*7D
$GLGSV,3,3,09,85,00,000,,1*4C
$GNGSA,A,3,10,15,18,23,24,32,,,,,,,1.5,1.2,0.9,1*35
$GNGSA,A,3,67,68,84,,,,,,,,,,1.5,1.2,0.9,2*3F
$GNVTG,,T,,M,0.0,N,0.0,K,A*3D
$GNDTM,P90,,0000.000026,S,00000.000002,E,0.978,W84*5E
$GNRMC,062623.00,A,4302.106365,N,07620.604570,W,0.0,,050324,9.5,W,A,V*71
$GNGNS,062623.00,4302.106365,N,07620.604570,W,AANNNN,09,1.2,211.6,-38.9,,,V*13
$GNGGA,062623.00,4302.106365,N,07620.604570,W,1,09,1.2,211.6,M,-38.9,M,,*43
$GPGSV,3,1,09,10,47,307,32,15,28,064,32,18,41,184,22,23,79,022,37,1*6F
$GPGSV,3,2,09,24,56,081,37,32,30,253,19,08,05,310,,22,02,033,,1*67
$GPGSV,3,3,09,27,09,277,,1*53
$GLGSV,3,1,09,69,34,286,23,84,40,305,23,67,26,063,26,68,60,002,35,1*71
$GLGSV,3,2,09,77,26,047,,76,01,011,,79,01,158,,83,37,215,,1*7D
$GLGSV,3,3,09,85,00,000,,1*4C
$GNGSA,A,3,10,15,18,23,24,32,,,,,,,1.5,1.2,0.9,1*35
$GNGSA,A,3,67,68,84,,,,,,,,,,1.5,1.2,0.9,2*3F
$GNVTG,,T,,M,0.0,N,0.0,K,A*3D
$GNDTM,P90,,0000.000026,S,00000.000002,E,0.978,W84*5E
$GNRMC,062624.00,A,4302.106380,N,07620.604561,W,0.0,,050324,9.5,W,A,V*7D
$GNGNS,062624.00,4302.106380,N,07620.604561,W,AANNNN,09,1.2,211.6,-38.9,,,V*1F
$GNGGA,062624.00,4302.106380,N,07620.604561,W,1,09,1.2,211.6,M,-38.9,M,,*4F
$GPGSV,3,1,09,10,47,307,32,15,28,064,31,18,41,184,22,23,79,022,36,1*6D
$GPGSV,3,2,09,24,56,081,37,32,30,253,19,08,05,310,,22,02,033,,1*67
$GPGSV,3,3,09,27,09,277,,1*53
$GLGSV,3,1,10,78,29,115,27,69,34,286,23,84,40,305,18,67,26,063,25,1*7A
$GLGSV,3,2,10,68,60,002,33,77,26,047,,76,01,011,,79,01,158,,1*76
$GLGSV,3,3,10,83,37,215,,85,00,000,,1*7D
$GNGSA,A,3,10,15,18,23,24,32,,,,,,,1.5,1.2,0.9,1*35
$GNGSA,A,3,67,68,84,,,,,,,,,,1.5,1.2,0.9,2*3F
$GNVTG,,T,,M,0.0,N,0.0,K,A*3D
$GNDTM,P90,,0000.000026,S,00000.000002,E,0.978,W84*5E
$GNRMC,062625.00,A,4302.106386,N,07620.604556,W,0.0,,050324,9.5,W,A,V*7E
$GNGNS,062625.00,4302.106386,N,07620.604556,W,AANNNN,09,1.2,211.7,-38.9,,,V*1D
$GNGGA,062625.00,4302.106386,N,07620.604556,W,1,09,1.2,211.7,M,-38.9,M,,*4D
$GPGSV,3,1,09,10,47,307,31,15,28,064,30,18,41,184,22,23,79,022,37,1*6E
$GPGSV,3,2,09,24,56,081,36,32,30,253,19,08,05,310,,22,02,033,,1*66
$GPGSV,3,3,09,27,09,277,,1*53
$GLGSV,3,1,10,78,29,115,29,69,34,286,21,84,40,305,20,67,26,063,24,1*7C
$GLGSV,3,2,10,68,60,002,33,77,26,047,,76,01,011,,79,01,158,,1*76
$GLGSV,3,3,10,83,37,215,,85,00,000,,1*7D
$GNGSA,A,3,10,15,18,23,24,32,,,,,,,1.5,1.2,0.9,1*35
$GNGSA,A,3,67,68,84,,,,,,,,,,1.5,1.2,0.9,2*3F
$GNVTG,,T,,M,0.0,N,0.0,K,A*3D
$GNDTM,P90,,0000.000026,S,00000.000002,E,0.978,W84*5E
$GNRMC,062626.00,A,4302.106389,N,07620.604554,W,0.0,,050324,9.5,W,A,V*70
$GNGNS,062626.00,4302.106389,N,07620.604554,W,AANNNN,09,1.2,211.7,-38.9,,,V*13
$GNGGA,062626.00,4302.106389,N,07620.604554,W,1,09,1.2,211.7,M,-38.9,M,,*43
$GPGSV,3,1,09,10,47,307,33,15,28,064,30,18,41,184,23,23,79,022,37,1*6D
$GPGSV,3,2,09,24,56,081,37,32,30,253,19,08,05,310,,22,02,033,,1*67
$GPGSV,3,3,09,27,09,277,,1*53
$GLGSV,3,1,10,78,29,115,29,69,34,286,24,84,40,305,20,67,26,063,23,1*7E
$GLGSV,3,2,10,68,60,002,34,77,26,047,,76,01,011,,79,01,158,,1*71
$GLGSV,3,3,10,83,37,215,,85,00,000,,1*7D
$GNGSA,A,3,10,15,18,23,24,,,,,,,,1.5,1.2,0.9,1*34
$GNGSA,A,3,67,68,84,,,,,,,,,,1.5,1.2,0.9,2*3F
$GNVTG,,T,,M,0.0,N,0.0,K,A*3D
$GNDTM,P90,,0000.000026,S,00000.000002,E,0.978,W84*5E
$GNRMC,062627.00,A,4302.106389,N,07620.604552,W,0.0,,050324,9.5,W,A,V*77
$GNGNS,062627.00,4302.106389,N,07620.604552,W,AANNNN,08,1.2,211.7,-38.9,,,V*15
$GNGGA,062627.00,4302.106389,N,07620.604552,W,1,08,1.2,211.7,M,-38.9,M,,*45
$GPGSV,3,1,09,10,47,307,32,15,28,064,32,18,41,184,23,23,79,022,38,1*61
$GPGSV,3,2,09,24,56,081,37,32,30,253,18,08,05,310,,22,02,033,,1*66
$GPGSV,3,3,09,27,09,277,,1*53
$GLGSV,3,1,10,78,29,115,29,69,34,286,24,84,40,305,20,67,26,063,23,1*7E
$GLGSV,3,2,10,68,60,002,33,77,26,047,,76,01,011,,79,01,158,,1*76
$GLGSV,3,3,10,83,37,215,,85,00,000,,1*7D
$GNGSA,A,3,10,15,18,23,24,32,,,,,,,1.5,1.2,0.9,1*35
$GNGSA,A,3,67,68,84,,,,,,,,,,1.5,1.2,0.9,2*3F
$GNVTG,,T,,M,0.0,N,0.0,K,A*3D
$GNDTM,P90,,0000.000026,S,00000.000002,E,0.978,W84*5E
$GNRMC,062628.00,A,4302.106386,N,07620.604553,W,0.0,,050324,9.5,W,A,V*76
$GNGNS,062628.00,4302.106386,N,07620.604553,W,AANNNN,09,1.2,211.6,-38.9,,,V*14
$GNGGA,062628.00,4302.106386,N,07620.604553,W,1,09,1.2,211.6,M,-38.9,M,,*44
$GPGSV,3,1,09,10,47,307,31,15,28,064,32,18,41,184,24,23,79,022,39,1*64
$GPGSV,3,2,09,24,56,081,37,32,30,253,23,08,05,310,,22,02,033,,1*6E
$GPGSV,3,3,09,27,09,277,,1*53
$GLGSV,3,1,10,78,29,115,29,69,34,286,23,84,40,305,21,67,26,063,24,1*7F
$GLGSV,3,2,10,68,60,002,36,77,26,047,,76,01,011,,79,01,158,,1*73
$GLGSV,3,3,10,83,37,215,,85,00,000,,1*7D
$GNGSA,A,3,10,15,18,23,24,32,,,,,,,1.5,1.2,0.9,1*35
$GNGSA,A,3,67,68,84,,,,,,,,,,1.5,1.2,0.9,2*3F
$GNVTG,,T,,M,0.0,N,0.0,K,A*3D
$GNDTM,P90,,0000.000026,S,00000.000002,E,0.978,W84*5E
$GNRMC,062629.00,A,4302.106387,N,07620.604551,W,0.0,,050324,9.5,W,A,V*74
$GNGNS,062629.00,4302.106387,N,07620.604551,W,AANNNN,09,1.2,211.7,-38.9,,,V*17
$GNGGA,062629.00,4302.106387,N,07620.604551,W,1,09,1.2,211.7,M,-38.9,M,,*47
$GPGSV,3,1,09,10,47,307,35,15,28,064,29,18,41,184,25,23,79,022,40,1*65
$GPGSV,3,2,09,24,56,081,36,32,30,253,24,08,05,310,,22,02,033,,1*68
$GPGSV,3,3,09,27,09,277,,1*53
$GLGSV,3,1,10,78,29,115,29,69,34,286,29,84,40,305,27,67,26,063,24,1*73
$GLGSV,3,2,10,68,60,002,40,77,26,047,,76,01,011,,79,01,158,,1*72
$GLGSV,3,3,10,83,37,215,,85,00,000,,1*7D
$GNGSA,A,3,10,15,18,23,24,32,,,,,,,1.5,1.2,0.9,1*35
$GNGSA,A,3,67,68,84,,,,,,,,,,1.5,1.2,0.9,2*3F
$GNVTG,,T,,M,0.0,N,0.0,K,A*3D
$GNDTM,P90,,0000.000026,S,00000.000002,E,0.978,W84*5E
$GNRMC,062630.00,A,4302.106388,N,07620.604550,W,0.0,,050324,9.5,W,A,V*72
$GNGNS,062630.00,4302.106388,N,07620.604550,W,AANNNN,09,1.2,211.7,-38.9,,,V*11
$GNGGA,062630.00,4302.106388,N,07620.604550,W,1,09,1.2,211.7,M,-38.9,M,,*41
$GPGSV,3,1,09,10,47,307,33,15,28,064,26,18,41,184,22,23,79,022,39,1*65
$GPGSV,3,2,09,24,56,081,34,32,30,253,24,08,05,310,,22,02,033,,1*6A
$GPGSV,3,3,09,27,09,277,,1*53
$GLGSV,3,1,10,78,29,115,27,69,34,286,28,84,40,305,24,67,26,063,23,1*78
$GLGSV,3,2,10,68,60,002,39,77,26,047,,76,01,011,,79,01,158,,1*7C
$GLGSV,3,3,10,83,37,215,,85,00,000,,1*7D
$GNGSA,A,3,10,15,18,23,24,32,,,,,,,1.5,1.2,0.9,1*35
$GNGSA,A,3,67,68,84,,,,,,,,,,1.5,1.2,0.9,2*3F
$GNVTG,,T,,M,0.0,N,0.0,K,A*3D
$GNDTM,P90,,0000.000026,S,00000.000002,E,0.978,W84*5E
$GNRMC,062631.00,A,4302.106389,N,07620.604550,W,0.0,,050324,9.5,W,A,V*72
$GNGNS,062631.00,4302.106389,N,07620.604550,W,AANNNN,09,1.2,211.7,-38.9,,,V*11
$GNGGA,062631.00,4302.106389,N,07620.604550,W,1,09,1.2,211.7,M,-38.9,M,,*41
$GPGSV,3,1,09,10,47,307,31,15,28,064,25,18,41,184,23,23,79,022,39,1*65
$GPGSV,3,2,09,24,56,081,34,32,30,253,19,08,05,310,,22,02,033,,1*64
$GPGSV,3,3,09,27,09,277,,1*53
$GLGSV,3,1,10,78,29,115,27,69,34,286,25,84,40,305,24,67,26,063,23,1*75
$GLGSV,3,2,10,68,60,002,38,77,26,047,,76,01,011,,79,01,158,,1*7D
$GLGSV,3,3,10,83,37,215,,85,00,000,,1*7D
$GNGSA,A,3,10,15,18,23,24,32,,,,,,,1.5,1.2,0.9,1*35
$GNGSA,A,3,67,68,84,,,,,,,,,,1.5,1.2,0.9,2*3F
$GNVTG,,T,,M,0.0,N,0.0,K,A*3D
$GNDTM,P90,,0000.000026,S,00000.000002,E,0.978,W84*5E
$GNRMC,062632.00,A,4302.106389,N,07620.604550,W,0.0,,050324,9.5,W,A,V*71
$GNGNS,062632.00,4302.106389,N,07620.604550,W,AANNNN,09,1.2,211.7,-38.9,,,V*12
$GNGGA,062632.00,4302.106389,N,07620.604550,W,1,09,1.2,211.7,M,-38.9,M,,*42
$GPGSV,3,1,09,10,47,307,32,15,28,064,26,18,41,184,23,23,79,022,39,1*65
$GPGSV,3,2,09,24,56,081,34,32,30,253,19,08,05,310,,22,02,033,,1*64
$GPGSV,3,3,09,27,09,277,,1*53
$GLGSV,3,1,10,78,29,115,27,69,34,286,26,84,40,305,24,67,26,063,24,1*71
$GLGSV,3,2,10,68,60,002,38,77,26,047,,76,01,011,,79,01,158,,1*7D
$GLGSV,3,3,10,83,37,215,,85,00,000,,1*7D
$GNGSA,A,3,10,15,18,23,24,32,,,,,,,1.5,1.2,0.9,1*35
$GNGSA,A,3,67,68,84,,,,,,,,,,1.5,1.2,0.9,2*3F
$GNVTG,,T,,M,0.0,N,0.0,K,A*3D
$GNDTM,P90,,0000.000026,S,00000.000002,E,0.978,W84*5E
$GNRMC,062633.00,A,4302.106389,N,07620.604550,W,0.0,,050324,9.5,W,A,V*70
$GNGNS,062633.00,4302.106389,N,07620.604550,W,AANNNN,09,1.2,211.7,-38.9,,,V*13
$GNGGA,062633.00,4302.106389,N,07620.604550,W,1,09,1.2,211.7,M,-38.9,M,,*43
$GPGSV,3,1,09,10,47,307,32,15,28,064,21,18,41,184,24,23,79,022,37,1*6B
$GPGSV,3,2,09,24,56,081,34,32,30,253,19,08,05,310,,22,02,033,,1*64
$GPGSV,3,3,09,27,09,277,,1*53
$GLGSV,3,1,10,78,29,115,26,69,34,286,26,84,40,305,24,67,26,063,25,1*71
$GLGSV,3,2,10,68,60,002,37,77,26,047,,76,01,011,,79,01,158,,1*72
$GLGSV,3,3,10,83,37,215,,85,00,000,,1*7D
$GNGSA,A,3,10,15,18,23,24,32,,,,,,,1.5,1.2,0.9,1*35
$GNGSA,A,3,67,68,84,,,,,,,,,,1.5,1.2,0.9,2*3F
$GNVTG,,T,,M,0.0,N,0.0,K,A*3D
$GNDTM,P90,,0000.000026,S,00000.000002,E,0.978,W84*5E
$GNRMC,062634.00,A,4302.106390,N,07620.604550,W,0.0,,050324,9.5,W,A,V*7F
$GNGNS,062634.00,4302.106390,N,07620.604550,W,AANNNN,09,1.2,211.7,-38.9,,,V*1C
$GNGGA,062634.00,4302.106390,N,07620.604550,W,1,09,1.2,211.7,M,-38.9,M,,*4C
$GPGSV,3,1,09,10,47,307,34,15,28,064,22,18,41,184,22,23,79,022,38,1*67
$GPGSV,3,2,09,24,56,081,34,32,30,253,19,08,05,310,,22,02,033,,1*64
$GPGSV,3,3,09,27,09,277,,1*53
$GLGSV,3,1,10,78,29,115,26,69,34,286,26,84,40,305,24,67,26,063,25,1*71
$GLGSV,3,2,10,68,60,002,38,77,26,047,,76,01,011,,79,01,158,,1*7D
$GLGSV,3,3,10,83,37,215,,85,00,000,,1*7D
$GNGSA,A,3,10,15,18,23,24,32,,,,,,,1.5,1.2,0.9,1*35
$GNGSA,A,3,67,68,84,,,,,,,,,,1.5,1.2,0.9,2*3F
$GNVTG,,T,,M,0.0,N,0.0,K,A*3D
$GNDTM,P90,,0000.000026,S,00000.000002,E,0.978,W84*5E
$GNRMC,062635.00,A,4302.106390,N,07620.604550,W,0.0,,050324,9.5,W,A,V*7E
$GNGNS,062635.00,4302.106390,N,07620.604550,W,AANNNN,09,1.2,211.7,-38.9,,,V*1D
$GNGGA,062635.00,4302.106390,N,07620.604550,W,1,09,1.2,211.7,M,-38.9,M,,*4D
$GPGSV,3,1,09,10,47,307,33,15,28,064,24,18,41,184,22,23,79,022,38,1*66
$GPGSV,3,2,09,24,56,081,34,32,30,253,19,08,05,310,,22,02,033,,1*64
$GPGSV,3,3,09,27,09,277,,1*53
$GLGSV,3,1,10,78,29,115,27,69,34,286,26,84,40,305,24,67,26,063,25,1*70
$GLGSV,3,2,10,68,60,002,38,77,26,047,,76,01,011,,79,01,158,,1*7D
$GLGSV,3,3,10,83,37,215,,85,00,000,,1*7D
$GNGSA,A,3,10,15,18,23,24,,,,,,,,1.5,1.2,0.9,1*34
$GNGSA,A,3,67,68,84,,,,,,,,,,1.5,1.2,0.9,2*3F
$GNVTG,,T,,M,0.0,N,0.0,K,A*3D
$GNDTM,P90,,0000.000026,S,00000.000002,E,0.978,W84*5E
$GNRMC,062636.00,A,4302.106390,N,07620.604550,W,0.0,,050324,9.5,W,A,V*7D
$GNGNS,062636.00,4302.106390,N,07620.604550,W,AANNNN,08,1.2,211.7,-38.9,,,V*1F
$GNGGA,062636.00,4302.106390,N,07620.604550,W,1,08,1.2,211.7,M,-38.9,M,,*4F
$GPGSV,3,1,09,10,47,307,33,15,28,064,21,18,41,184,22,23,79,022,38,1*63
$GPGSV,3,2,09,24,56,081,34,32,30,253,19,08,05,310,,22,02,033,,1*64
$GPGSV,3,3,09,27,09,277,,1*53
$GLGSV,3,1,10,78,29,115,27,69,34,286,27,84,40,305,22,67,26,063,24,1*76
$GLGSV,3,2,10,68,60,002,39,77,26,047,,76,01,011,,79,01,158,,1*7C
$GLGSV,3,3,10,83,37,215,,85,00,000,,1*7D
$GNGSA,A,3,10,15,18,23,24,,,,,,,,1.5,1.2,0.9,1*34
$GNGSA,A,3,67,68,84,,,,,,,,,,1.5,1.2,0.9,2*3F
$GNVTG,,T,,M,0.0,N,0.0,K,A*3D
$GNDTM,P90,,0000.000026,S,00000.000002,E,0.978,W84*5E
$GNRMC,062637.00,A,4302.106391,N,07620.604550,W,0.0,,050324,9.5,W,A,V*7D
$GNGNS,062637.00,4302.106391,N,07620.604550,W,AANNNN,08,1.2,211.7,-38.9,,,V*1F
$GNGGA,062637.00,4302.106391,N,07620.604550,W,1,08,1.2,211.7,M,-38.9,M,,*4F
$GPGSV,3,1,09,10,47,307,31,15,28,064,23,18,41,184,22,23,79,022,38,1*63
$GPGSV,3,2,09,24,56,081,34,32,30,253,19,08,05,310,,22,02,033,,1*64
$GPGSV,3,3,09,27,09,277,,1*53
$GLGSV,3,1,10,78,29,115,26,69,34,286,28,84,40,305,21,67,26,063,20,1*7F
$GLGSV,3,2,10,68,60,002,38,77,26,047,,76,01,011,,79,01,158,,1*7D
$GLGSV,3,3,10,83,37,215,,85,00,000,,1*7D
$GNGSA,A,3,10,15,18,23,24,,,,,,,,1.5,1.2,0.9,1*34
$GNGSA,A,3,67,68,84,,,,,,,,,,1.5,1.2,0.9,2*3F
$GNVTG,,T,,M,0.0,N,0.0,K,A*3D
$GNDTM,P90,,0000.000026,S,00000.000002,E,0.978,W84*5E
$GNRMC,062638.00,A,4302.106393,N,07620.604550,W,0.0,,050324,9.5,W,A,V*70
$GNGNS,062638.00,4302.106393,N,07620.604550,W,AANNNN,08,1.2,211.7,-38.9,,,V*12
$GNGGA,062638.00,4302.106393,N,07620.604550,W,1,08,1.2,211.7,M,-38.9,M,,*42
$GPGSV,3,1,09,10,47,307,31,15,28,064,23,18,41,184,24,23,79,022,38,1*65
$GPGSV,3,2,09,24,56,081,33,32,30,253,19,08,05,310,,22,02,033,,1*63
$GPGSV,3,3,09,27,09,277,,1*53
$GLGSV,3,1,10,78,29,115,27,69,34,286,28,84,40,305,22,67,26,063,22,1*7F
$GLGSV,3,2,10,68,60,002,38,77,26,047,,76,01,011,,79,01,158,,1*7D
$GLGSV,3,3,10,83,37,215,,85,00,000,,1*7D
$GNGSA,A,3,10,15,18,23,24,,,,,,,,1.5,1.2,0.9,1*34
$GNGSA,A,3,67,68,84,,,,,,,,,,1.5,1.2,0.9,2*3F
$GNVTG,,T,,M,0.0,N,0.0,K,A*3D
$GNDTM,P90,,0000.000026,S,00000.000002,E,0.978,W84*5E
$GNRMC,062639.00,A,4302.106393,N,07620.604550,W,0.0,,050324,9.5,W,A,V*71
$GNGNS,062639.00,4302.106393,N,07620.604550,W,AANNNN,08,1.2,211.7,-38.9,,,V*13
$GNGGA,062639.00,4302.106393,N,07620.604550,W,1,08,1.2,211.7,M,-38.9,M,,*43
$GPGSV,3,1,09,10,47,307,30,15,28,064,23,18,41,184,23,23,79,022,38,1*63
$GPGSV,3,2,09,24,56,081,33,32,30,253,19,08,05,310,,22,02,033,,1*63
$GPGSV,3,3,09,27,09,277,,1*53
$GLGSV,3,1,10,78,29,115,26,69,34,286,28,84,40,305,21,67,26,063,22,1*7D
$GLGSV,3,2,10,68,60,002,38,77,26,047,,76,01,011,,79,01,158,,1*7D
$GLGSV,3,3,10,83,37,215,,85,00,000,,1*7D
$GNGSA,A,3,10,15,18,23,24,,,,,,,,1.5,1.2,0.9,1*34
$GNGSA,A,3,67,68,84,,,,,,,,,,1.5,1.2,0.9,2*3F
$GNVTG,,T,,M,0.0,N,0.0,K,A*3D
$GNDTM,P90,,0000.000026,S,00000.000002,E,0.978,W84*5E
$GNRMC,062640.00,A,4302.106393,N,07620.604551,W,0.0,,050324,9.5,W,A,V*7E
$GNGNS,062640.00,4302.106393,N,07620.604551,W,AANNNN,08,1.2,211.7,-38.9,,,V*1C
$GNGGA,062640.00,4302.106393,N,07620.604551,W,1,08,1.2,211.7,M,-38.9,M,,*4C
$GPGSV,3,1,09,10,47,307,31,15,28,064,23,18,41,184,23,23,79,022,38,1*62
$GPGSV,3,2,09,24,56,081,34,32,30,253,19,08,05,310,,22,02,033,,1*64
$GPGSV,3,3,09,27,09,277,,1*53
$GLGSV,3,1,10,78,29,115,27,69,34,286,28,84,40,305,20,67,26,063,18,1*74
$GLGSV,3,2,10,68,60,002,38,77,26,047,,76,01,011,,79,01,158,,1*7D
$GLGSV,3,3,10,83,37,215,,85,00,000,,1*7D
$GNGSA,A,3,10,15,18,23,24,,,,,,,,1.5,1.2,0.9,1*34
$GNGSA,A,3,67,68,84,,,,,,,,,,1.5,1.2,0.9,2*3F
$GNVTG,,T,,M,0.0,N,0.0,K,A*3D
$GNDTM,P90,,0000.000026,S,00000.000002,E,0.978,W84*5E
$GNRMC,062641.00,A,4302.106393,N,07620.604552,W,0.0,,050324,9.5,W,A,V*7C
$GNGNS,062641.00,4302.106393,N,07620.604552,W,AANNNN,08,1.2,211.7,-38.9,,,V*1E
$GNGGA,062641.00,4302.106393,N,07620.604552,W,1,08,1.2,211.7,M,-38.9,M,,*4E
$GPGSV,3,1,09,10,47,307,32,15,28,064,21,18,41,184,24,23,79,022,38,1*64
$GPGSV,3,2,09,24,56,081,33,32,30,253,19,08,05,310,,22,02,033,,1*63
$GPGSV,3,3,09,27,09,277,,1*53
$GLGSV,3,1,10,78,29,115,26,69,34,286,27,84,40,305,23,67,26,063,21,1*73
$GLGSV,3,2,10,68,60,002,38,77,26,047,,76,01,011,,79,01,158,,1*7D
$GLGSV,3,3,10,83,37,215,,85,00,000,,1*7D
$GNGSA,A,3,10,15,18,23,24,,,,,,,,1.5,1.2,0.9,1*34
$GNGSA,A,3,67,68,84,,,,,,,,,,1.5,1.2,0.9,2*3F
$GNVTG,,T,,M,0.0,N,0.0,K,A*3D
$GNDTM,P90,,0000.000026,S,00000.000002,E,0.978,W84*5E
$GNRMC,062642.00,A,4302.106391,N,07620.604554,W,0.0,,050324,9.5,W,A,V*7B
$GNGNS,062642.00,4302.106391,N,07620.604554,W,AANNNN,08,1.2,211.7,-38.9,,,V*19
$GNGGA,062642.00,4302.106391,N,07620.604554,W,1,08,1.2,211.7,M,-38.9,M,,*49
$GPGSV,3,1,09,10,47,307,27,15,28,064,27,18,41,184,21,23,79,022,35,1*6E
$GPGSV,3,2,09,24,56,081,34,32,30,253,19,08,05,310,,22,02,033,,1*64
$GPGSV,3,3,09,27,09,277,,1*53
$GLGSV,3,1,10,78,29,115,24,69,34,286,27,84,40,305,23,67,26,063,24,1*74
$GLGSV,3,2,10,68,60,002,36,77,26,047,,76,01,011,,79,01,158,,1*73
$GLGSV,3,3,10,83,37,215,,85,00,000,,1*7D
$GNGSA,A,3,10,15,18,23,24,,,,,,,,1.5,1.2,0.9,1*34
$GNGSA,A,3,67,68,84,,,,,,,,,,1.5,1.2,0.9,2*3F
$GNVTG,,T,,M,0.0,N,0.0,K,A*3D
$GNDTM,P90,,0000.000026,S,00000.000002,E,0.978,W84*5E
$GNRMC,062643.00,A,4302.106389,N,07620.604556,W,0.0,,050324,9.5,W,A,V*71
$GNGNS,062643.00,4302.106389,N,07620.604556,W,AANNNN,08,1.2,211.7,-38.9,,,V*13
$GNGGA,062643.00,4302.106389,N,07620.604556,W,1,08,1.2,211.7,M,-38.9,M,,*43
$GPGSV,3,1,09,10,47,307,24,15,28,064,29,18,41,184,21,23,79,022,32,1*64
$GPGSV,3,2,09,24,56,081,27,32,30,253,16,08,05,310,,22,02,033,,1*69
$GPGSV,3,3,09,27,09,277,,1*53
$GLGSV,3,1,10,78,29,115,24,69,34,286,28,84,40,305,23,67,26,063,29,1*76
$GLGSV,3,2,10,68,60,002,31,77,26,047,,76,01,011,,79,01,158,,1*74
$GLGSV,3,3,10,83,37,215,,85,00,000,,1*7D
$GNGSA,A,3,10,15,18,23,24,32,,,,,,,1.5,1.2,0.9,1*35
$GNGSA,A,3,67,68,84,,,,,,,,,,1.5,1.2,0.9,2*3F
$GNVTG,,T,,M,0.0,N,0.0,K,A*3D
$GNDTM,P90,,0000.000026,S,00000.000002,E,0.978,W84*5E
$GNRMC,062644.00,A,4302.106389,N,07620.604556,W,0.0,,050324,9.5,W,A,V*76
$GNGNS,062644.00,4302.106389,N,07620.604556,W,AANNNN,09,1.2,211.7,-38.9,,,V*15
$GNGGA,062644.00,4302.106389,N,07620.604556,W,1,09,1.2,211.7,M,-38.9,M,,*45
$GPGSV,3,1,09,10,47,307,28,15,28,064,23,18,41,184,21,23,79,022,32,1*62
